% program   : RTKPOST ver.2.4.2
% inp file  : C:\Users\nobu\2017\collaboration\CQèoî≈\CQ1012\Debug\rov.obs
% inp file  : C:\Users\nobu\2017\collaboration\CQèoî≈\CQ1012\Debug\ref.obs
% inp file  : C:\Users\nobu\2017\collaboration\CQèoî≈\CQ1012\Debug\ref.nav
% obs start : 2017/12/26 03:39:32.4 GPST (week1981 185972.4s)
% obs end   : 2017/12/26 04:05:18.0 GPST (week1981 187518.0s)
% pos mode  : kinematic
% freqs     : L1
% solution  : forward
% elev mask : 15.0 deg
% dynamics  : off
% tidecorr  : off
% ionos opt : broadcast
% tropo opt : saastamoinen
% ephemeris : broadcast
% navi sys  : gps glonass qzss
% amb res   : instantaneous
% amb glo   : off
% val thres : 3.0
% antenna1  :                       ( 0.0000  0.0000  0.0000)
% antenna2  :                       ( 0.0000  0.0000  0.0000)
% ref pos   : 35.666334650  139.792200998    59.7300
%
% (lat/lon/height=WGS84/ellipsoidal,Q=1:fix,2:float,3:sbas,4:dgps,5:single,6:ppp,ns=# of satellites)
%  GPST          latitude(deg) longitude(deg)  height(m)   Q  ns   sdn(m)   sde(m)   sdu(m)  sdne(m)  sdeu(m)  sdun(m) age(s)  ratio
1981 185972.400   35.667583961  139.791065529    37.4235   2  17   0.5125   0.5661   1.3165   0.2427  -0.5130  -0.2737   0.00    1.6
1981 185972.600   35.667583727  139.791065749    37.4092   2  17   0.5125   0.5661   1.3165   0.2426  -0.5129  -0.2737   0.00    2.3
1981 185972.800   35.667583138  139.791065072    37.0538   2  17   0.5125   0.5661   1.3164   0.2426  -0.5129  -0.2736   0.00    2.1
1981 185973.000   35.667583446  139.791065022    37.0871   2  17   0.5125   0.5661   1.3164   0.2426  -0.5129  -0.2736   0.00    1.8
1981 185973.200   35.667583164  139.791066322    36.9356   2  17   0.5125   0.5661   1.3164   0.2426  -0.5129  -0.2735   0.00    1.8
1981 185973.400   35.667583021  139.791066645    36.9244   2  17   0.5125   0.5661   1.3164   0.2426  -0.5129  -0.2735   0.00    2.0
1981 185973.600   35.667582680  139.791066779    36.7991   2  17   0.5124   0.5660   1.3163   0.2426  -0.5128  -0.2734   0.00    1.7
1981 185973.800   35.667583237  139.791068830    36.4461   2  17   0.5124   0.5660   1.3163   0.2425  -0.5128  -0.2734   0.00    1.6
1981 185974.000   35.667583019  139.791069643    36.1245   2  17   0.5124   0.5660   1.3163   0.2425  -0.5128  -0.2733   0.00    1.5
1981 185974.200   35.667583368  139.791069185    36.3813   2  17   0.5124   0.5660   1.3162   0.2425  -0.5128  -0.2733   0.00    1.6
1981 185974.400   35.667583597  139.791068877    36.1542   2  17   0.5124   0.5660   1.3162   0.2425  -0.5127  -0.2733   0.00    1.4
1981 185974.600   35.667583510  139.791068107    36.1569   2  17   0.5124   0.5660   1.3162   0.2425  -0.5127  -0.2732   0.00    1.6
1981 185974.800   35.667583042  139.791067709    36.1956   2  17   0.5124   0.5660   1.3162   0.2425  -0.5127  -0.2732   0.00    1.6
1981 185975.000   35.667583747  139.791069478    35.9286   2  17   0.5124   0.5660   1.3161   0.2424  -0.5127  -0.2731   0.00    1.4
1981 185975.200   35.667583963  139.791069900    35.9101   2  17   0.5124   0.5660   1.3161   0.2424  -0.5127  -0.2731   0.00    1.5
1981 185975.400   35.667583678  139.791069412    35.7001   2  17   0.5124   0.5660   1.3161   0.2424  -0.5126  -0.2730   0.00    1.3
1981 185975.600   35.667584042  139.791070648    35.5279   2  17   0.5124   0.5660   1.3160   0.2424  -0.5126  -0.2730   0.00    1.3
1981 185975.800   35.667585095  139.791071397    35.4528   2  17   0.5124   0.5660   1.3160   0.2424  -0.5126  -0.2730   0.00    1.2
1981 185976.000   35.667585069  139.791071362    35.2488   2  17   0.5124   0.5660   1.3160   0.2424  -0.5126  -0.2729   0.00    1.1
1981 185976.200   35.667584154  139.791071623    35.1526   2  17   0.5124   0.5660   1.3160   0.2424  -0.5125  -0.2729   0.00    1.2
1981 185976.400   35.667583869  139.791070236    35.5505   2  17   0.5124   0.5660   1.3159   0.2423  -0.5125  -0.2728   0.00    1.2
1981 185976.600   35.667584993  139.791071604    35.4066   2  17   0.5124   0.5659   1.3159   0.2423  -0.5125  -0.2728   0.00    1.1
1981 185976.800   35.667586218  139.791070748    35.6954   2  17   0.5124   0.5659   1.3159   0.2423  -0.5125  -0.2727   0.00    1.2
1981 185977.000   35.667585615  139.791070328    35.8038   2  17   0.5124   0.5659   1.3158   0.2423  -0.5124  -0.2727   0.00    1.2
1981 185977.200   35.667584643  139.791069716    35.5683   2  17   0.5124   0.5659   1.3158   0.2423  -0.5124  -0.2726   0.00    1.2
1981 185977.400   35.667584979  139.791068714    35.5580   2  17   0.5124   0.5659   1.3158   0.2423  -0.5124  -0.2726   0.00    1.0
1981 185977.600   35.667584680  139.791068220    35.7516   2  17   0.5124   0.5659   1.3158   0.2422  -0.5124  -0.2726   0.00    1.1
1981 185977.800   35.667585445  139.791068188    35.5661   2  17   0.5124   0.5659   1.3157   0.2422  -0.5124  -0.2725   0.00    1.0
1981 185978.000   35.667585076  139.791067821    35.7660   2  17   0.5124   0.5659   1.3157   0.2422  -0.5123  -0.2725   0.00    1.0
1981 185978.200   35.667585953  139.791067749    35.7610   2  17   0.5124   0.5659   1.3157   0.2422  -0.5123  -0.2724   0.00    1.0
1981 185978.400   35.667586542  139.791067646    35.9045   2  17   0.5124   0.5659   1.3156   0.2422  -0.5123  -0.2724   0.00    1.1
1981 185978.600   35.667587302  139.791068006    35.9949   2  17   0.5124   0.5659   1.3156   0.2422  -0.5123  -0.2723   0.00    1.2
1981 185978.800   35.667587649  139.791068808    35.7697   2  17   0.5124   0.5659   1.3156   0.2421  -0.5122  -0.2723   0.00    1.2
1981 185979.000   35.667587460  139.791068601    35.6315   2  17   0.5124   0.5659   1.3156   0.2421  -0.5122  -0.2722   0.00    1.4
1981 185979.200   35.667588145  139.791069243    35.7441   2  17   0.5124   0.5659   1.3155   0.2421  -0.5122  -0.2722   0.00    1.2
1981 185979.400   35.667587101  139.791068987    35.7160   2  17   0.5124   0.5659   1.3155   0.2421  -0.5122  -0.2722   0.00    1.1
1981 185979.600   35.667586262  139.791069368    35.7443   2  17   0.5124   0.5659   1.3155   0.2421  -0.5122  -0.2721   0.00    1.0
1981 185979.800   35.667586157  139.791071510    35.5000   2  17   0.5124   0.5658   1.3155   0.2421  -0.5121  -0.2721   0.00    1.0
1981 185980.000   35.667586652  139.791070866    35.8499   2  17   0.5124   0.5658   1.3154   0.2421  -0.5121  -0.2720   0.00    1.0
1981 185980.200   35.667586329  139.791071750    36.0204   2  17   0.5124   0.5658   1.3154   0.2420  -0.5121  -0.2720   0.00    1.2
1981 185980.400   35.667586060  139.791074184    36.2178   2  17   0.5124   0.5658   1.3154   0.2420  -0.5121  -0.2719   0.00    1.0
1981 185980.600   35.667585899  139.791075494    36.3107   2  17   0.5124   0.5658   1.3153   0.2420  -0.5120  -0.2719   0.00    1.2
1981 185980.800   35.667585559  139.791074716    36.2803   2  17   0.5123   0.5658   1.3153   0.2420  -0.5120  -0.2719   0.00    1.4
1981 185981.000   35.667584728  139.791074312    36.4158   2  17   0.5123   0.5658   1.3153   0.2420  -0.5120  -0.2718   0.00    1.4
1981 185981.200   35.667584816  139.791073947    36.0709   2  17   0.5123   0.5658   1.3153   0.2420  -0.5120  -0.2718   0.00    1.1
1981 185981.400   35.667584236  139.791073434    36.1607   2  17   0.5123   0.5658   1.3152   0.2419  -0.5120  -0.2717   0.00    1.3
1981 185981.600   35.667584233  139.791074291    36.2278   2  17   0.5123   0.5658   1.3152   0.2419  -0.5119  -0.2717   0.00    1.3
1981 185981.800   35.667583588  139.791077089    36.1074   2  17   0.5123   0.5658   1.3152   0.2419  -0.5119  -0.2716   0.00    1.5
1981 185982.000   35.667583647  139.791075795    35.9491   2  17   0.5123   0.5658   1.3151   0.2419  -0.5119  -0.2716   0.00    1.4
1981 185982.200   35.667583562  139.791076145    35.8207   2  17   0.5123   0.5658   1.3151   0.2419  -0.5119  -0.2715   0.00    1.2
1981 185982.400   35.667582622  139.791076441    35.7426   2  17   0.5123   0.5658   1.3151   0.2419  -0.5118  -0.2715   0.00    1.4
1981 185982.600   35.667582502  139.791075091    35.8668   2  17   0.5123   0.5658   1.3151   0.2418  -0.5118  -0.2715   0.00    1.3
1981 185982.800   35.667581528  139.791075991    36.4163   2  17   0.5123   0.5657   1.3150   0.2418  -0.5118  -0.2714   0.00    1.5
1981 185983.000   35.667582004  139.791076713    36.7708   2  17   0.5123   0.5657   1.3150   0.2418  -0.5118  -0.2714   0.00    1.9
1981 185983.200   35.667581581  139.791077388    36.8870   2  17   0.5123   0.5657   1.3150   0.2418  -0.5117  -0.2713   0.00    2.2
1981 185983.400   35.667582337  139.791076519    36.7029   2  17   0.5123   0.5657   1.3149   0.2418  -0.5117  -0.2713   0.00    2.1
1981 185983.600   35.667582144  139.791076201    36.8653   2  17   0.5123   0.5657   1.3149   0.2418  -0.5117  -0.2712   0.00    1.9
1981 185983.800   35.667581637  139.791076162    36.8422   2  17   0.5123   0.5657   1.3149   0.2417  -0.5117  -0.2712   0.00    2.3
1981 185984.000   35.667582055  139.791074070    36.8636   2  17   0.5123   0.5657   1.3149   0.2417  -0.5117  -0.2711   0.00    2.1
1981 185984.200   35.667581314  139.791073070    36.6814   2  17   0.5123   0.5657   1.3148   0.2417  -0.5116  -0.2711   0.00    1.9
1981 185984.400   35.667581024  139.791073050    37.1189   2  17   0.5123   0.5657   1.3148   0.2417  -0.5116  -0.2711   0.00    2.8
1981 185984.600   35.667581381  139.791074054    36.9772   2  17   0.5123   0.5657   1.3148   0.2417  -0.5116  -0.2710   0.00    2.4
1981 185984.800   35.667580676  139.791074665    36.8754   2  17   0.5123   0.5657   1.3147   0.2417  -0.5116  -0.2710   0.00    2.5
1981 185985.000   35.667580459  139.791075108    37.1181   2  17   0.5123   0.5657   1.3147   0.2417  -0.5115  -0.2709   0.00    2.1
1981 185985.200   35.667579541  139.791075829    37.0880   2  17   0.5123   0.5657   1.3147   0.2416  -0.5115  -0.2709   0.00    2.0
1981 185985.400   35.667579227  139.791075614    37.2639   2  17   0.5123   0.5657   1.3147   0.2416  -0.5115  -0.2708   0.00    2.2
1981 185985.600   35.667578907  139.791075935    37.1525   2  17   0.5123   0.5657   1.3146   0.2416  -0.5115  -0.2708   0.00    2.2
1981 185985.800   35.667579146  139.791076688    37.2257   2  17   0.5123   0.5657   1.3146   0.2416  -0.5115  -0.2708   0.00    1.9
1981 185986.000   35.667579693  139.791076328    37.5425   2  17   0.5123   0.5656   1.3146   0.2416  -0.5114  -0.2707   0.00    2.9
1981 185986.200   35.667577844  139.791065695    39.4697   1  17   0.0061   0.0068   0.0152   0.0031  -0.0052  -0.0034   0.00    3.2
1981 185986.400   35.667577829  139.791065709    39.4597   1  17   0.0061   0.0068   0.0152   0.0031  -0.0052  -0.0034   0.00    3.4
1981 185986.600   35.667580934  139.791076013    37.5688   2  17   0.5123   0.5656   1.3145   0.2415  -0.5114  -0.2706   0.00    2.9
1981 185986.800   35.667577828  139.791065703    39.4597   1  17   0.0061   0.0068   0.0152   0.0031  -0.0052  -0.0034   0.00    3.4
1981 185987.000   35.667577847  139.791065707    39.4640   1  17   0.0061   0.0068   0.0152   0.0031  -0.0052  -0.0034   0.00    3.1
1981 185987.200   35.667577846  139.791065707    39.4595   1  17   0.0061   0.0068   0.0152   0.0031  -0.0052  -0.0034   0.00    4.0
1981 185987.400   35.667577837  139.791065710    39.4613   1  17   0.0061   0.0068   0.0152   0.0031  -0.0052  -0.0034   0.00    4.2
1981 185987.600   35.667577832  139.791065724    39.4598   1  17   0.0061   0.0068   0.0152   0.0031  -0.0052  -0.0034   0.00    3.7
1981 185987.800   35.667577856  139.791065717    39.4601   1  17   0.0061   0.0068   0.0152   0.0031  -0.0052  -0.0034   0.00    4.4
1981 185988.000   35.667577842  139.791065722    39.4599   1  17   0.0061   0.0068   0.0152   0.0031  -0.0052  -0.0034   0.00    3.4
1981 185988.200   35.667577843  139.791065713    39.4571   1  17   0.0061   0.0068   0.0152   0.0030  -0.0052  -0.0034   0.00    3.8
1981 185988.400   35.667577830  139.791065720    39.4614   1  17   0.0061   0.0068   0.0152   0.0030  -0.0052  -0.0034   0.00    3.7
1981 185988.600   35.667577827  139.791065710    39.4570   1  17   0.0061   0.0068   0.0152   0.0030  -0.0052  -0.0034   0.00    4.5
1981 185988.800   35.667577825  139.791065705    39.4604   1  17   0.0061   0.0068   0.0152   0.0030  -0.0052  -0.0034   0.00    4.2
1981 185989.000   35.667577821  139.791065736    39.4556   1  17   0.0061   0.0068   0.0152   0.0030  -0.0052  -0.0034   0.00    3.3
1981 185989.200   35.667577823  139.791065699    39.4615   1  17   0.0061   0.0068   0.0152   0.0030  -0.0052  -0.0034   0.00    3.7
1981 185989.400   35.667577844  139.791065702    39.4592   1  17   0.0061   0.0068   0.0152   0.0030  -0.0052  -0.0034   0.00    4.4
1981 185989.600   35.667577824  139.791065698    39.4610   1  17   0.0061   0.0068   0.0152   0.0030  -0.0052  -0.0034   0.00    5.6
1981 185989.800   35.667577839  139.791065722    39.4642   1  17   0.0061   0.0068   0.0152   0.0030  -0.0052  -0.0034   0.00    4.9
1981 185990.000   35.667577825  139.791065685    39.4626   1  17   0.0061   0.0068   0.0152   0.0030  -0.0052  -0.0034   0.00    4.7
1981 185990.200   35.667577836  139.791065726    39.4573   1  17   0.0061   0.0068   0.0152   0.0030  -0.0052  -0.0034   0.00    6.4
1981 185990.400   35.667577842  139.791065716    39.4641   1  17   0.0061   0.0068   0.0152   0.0030  -0.0052  -0.0034   0.00    7.7
1981 185990.600   35.667577823  139.791065684    39.4617   1  17   0.0061   0.0068   0.0152   0.0030  -0.0052  -0.0034   0.00    6.6
1981 185990.800   35.667577825  139.791065697    39.4657   1  17   0.0061   0.0068   0.0152   0.0030  -0.0052  -0.0034   0.00    7.3
1981 185991.000   35.667577858  139.791065720    39.4633   1  17   0.0061   0.0068   0.0152   0.0030  -0.0052  -0.0034   0.00    6.8
1981 185991.200   35.667577836  139.791065702    39.4657   1  17   0.0061   0.0068   0.0152   0.0030  -0.0052  -0.0034   0.00    7.9
1981 185991.400   35.667577846  139.791065714    39.4671   1  17   0.0061   0.0068   0.0152   0.0030  -0.0052  -0.0034   0.00   11.2
1981 185991.600   35.667577860  139.791065732    39.4680   1  17   0.0061   0.0068   0.0152   0.0030  -0.0052  -0.0034   0.00    8.3
1981 185991.800   35.667577847  139.791065739    39.4611   1  17   0.0061   0.0068   0.0152   0.0030  -0.0052  -0.0034   0.00   10.6
1981 185992.000   35.667577847  139.791065748    39.4728   1  17   0.0061   0.0068   0.0152   0.0030  -0.0052  -0.0034   0.00    8.9
1981 185992.200   35.667577845  139.791065715    39.4658   1  17   0.0061   0.0068   0.0152   0.0030  -0.0052  -0.0034   0.00    9.3
1981 185992.400   35.667577859  139.791065744    39.4712   1  17   0.0061   0.0068   0.0152   0.0030  -0.0052  -0.0034   0.00    8.4
1981 185992.600   35.667577851  139.791065743    39.4692   1  17   0.0061   0.0068   0.0152   0.0030  -0.0052  -0.0034   0.00    9.3
1981 185992.800   35.667577870  139.791065706    39.4667   1  17   0.0061   0.0068   0.0152   0.0030  -0.0052  -0.0034   0.00    8.9
1981 185993.000   35.667577839  139.791065724    39.4659   1  17   0.0061   0.0068   0.0152   0.0030  -0.0052  -0.0034   0.00   12.5
1981 185993.200   35.667577845  139.791065770    39.4668   1  17   0.0061   0.0068   0.0152   0.0030  -0.0052  -0.0034   0.00   18.6
1981 185993.400   35.667577859  139.791065738    39.4658   1  17   0.0061   0.0068   0.0152   0.0030  -0.0052  -0.0034   0.00    7.9
1981 185993.600   35.667577860  139.791065734    39.4687   1  17   0.0061   0.0068   0.0152   0.0030  -0.0052  -0.0034   0.00   10.7
1981 185993.800   35.667577848  139.791065745    39.4656   1  17   0.0061   0.0068   0.0152   0.0030  -0.0052  -0.0034   0.00   17.9
1981 185994.000   35.667577846  139.791065753    39.4676   1  17   0.0061   0.0068   0.0152   0.0030  -0.0052  -0.0034   0.00   11.0
1981 185994.200   35.667577863  139.791065739    39.4680   1  17   0.0061   0.0068   0.0152   0.0030  -0.0052  -0.0034   0.00    8.1
1981 185994.400   35.667577853  139.791065750    39.4656   1  17   0.0061   0.0068   0.0152   0.0030  -0.0052  -0.0034   0.00    7.7
1981 185994.600   35.667577857  139.791065760    39.4614   1  17   0.0061   0.0068   0.0152   0.0030  -0.0052  -0.0034   0.00    7.9
1981 185994.800   35.667577850  139.791065749    39.4596   1  17   0.0061   0.0068   0.0152   0.0030  -0.0052  -0.0034   0.00    5.8
1981 185995.000   35.667577870  139.791065746    39.4595   1  17   0.0061   0.0068   0.0152   0.0030  -0.0052  -0.0034   0.00    6.5
1981 185995.200   35.667577839  139.791065734    39.4627   1  17   0.0061   0.0068   0.0152   0.0030  -0.0052  -0.0034   0.00    6.5
1981 185995.400   35.667577858  139.791065735    39.4663   1  17   0.0061   0.0068   0.0152   0.0030  -0.0052  -0.0034   0.00    4.9
1981 185995.600   35.667577858  139.791065733    39.4615   1  17   0.0061   0.0068   0.0152   0.0030  -0.0052  -0.0034   0.00    8.9
1981 185995.800   35.667577841  139.791065759    39.4634   1  17   0.0061   0.0068   0.0152   0.0030  -0.0052  -0.0034   0.00    5.6
1981 185996.000   35.667577860  139.791065734    39.4665   1  17   0.0061   0.0068   0.0152   0.0030  -0.0052  -0.0034   0.00    4.9
1981 185996.200   35.667577847  139.791065727    39.4595   1  17   0.0061   0.0068   0.0152   0.0030  -0.0052  -0.0034   0.00    5.0
1981 185996.400   35.667577844  139.791065721    39.4639   1  17   0.0061   0.0068   0.0152   0.0030  -0.0052  -0.0034   0.00    4.0
1981 185996.600   35.667577852  139.791065735    39.4638   1  17   0.0061   0.0068   0.0152   0.0030  -0.0052  -0.0034   0.00    3.4
1981 185996.800   35.667577846  139.791065763    39.4568   1  17   0.0061   0.0068   0.0152   0.0030  -0.0052  -0.0034   0.00    3.7
1981 185997.000   35.667577860  139.791065724    39.4643   1  17   0.0061   0.0068   0.0152   0.0030  -0.0052  -0.0034   0.00    5.4
1981 185997.200   35.667577855  139.791065741    39.4600   1  17   0.0061   0.0068   0.0152   0.0030  -0.0052  -0.0034   0.00    4.4
1981 185997.400   35.667577875  139.791065732    39.4658   1  17   0.0061   0.0068   0.0152   0.0030  -0.0052  -0.0034   0.00    3.1
1981 185997.600   35.667577846  139.791065735    39.4637   1  17   0.0061   0.0068   0.0152   0.0030  -0.0052  -0.0034   0.00    4.4
1981 185997.800   35.667576267  139.791068669    37.4531   2  17   0.5121   0.5653   1.3129   0.2406  -0.5101  -0.2681   0.00    2.9
1981 185998.000   35.667576215  139.791067565    37.3277   2  17   0.5121   0.5653   1.3129   0.2406  -0.5101  -0.2681   0.00    2.3
1981 185998.200   35.667575310  139.791066772    37.4085   2  17   0.5121   0.5653   1.3128   0.2406  -0.5101  -0.2680   0.00    2.3
1981 185998.400   35.667577842  139.791065766    39.4634   1  17   0.0061   0.0068   0.0152   0.0030  -0.0052  -0.0034   0.00    3.5
1981 185998.600   35.667577861  139.791065745    39.4667   1  17   0.0061   0.0068   0.0152   0.0030  -0.0052  -0.0034   0.00    4.3
1981 185998.800   35.667574700  139.791066843    37.9470   2  17   0.5121   0.5652   1.3128   0.2406  -0.5100  -0.2679   0.00    3.0
1981 185999.000   35.667577864  139.791065722    39.4677   1  17   0.0061   0.0068   0.0152   0.0030  -0.0052  -0.0034   0.00    4.7
1981 185999.200   35.667577848  139.791065747    39.4568   1  17   0.0061   0.0068   0.0152   0.0030  -0.0052  -0.0034   0.00    5.1
1981 185999.400   35.667577850  139.791065732    39.4611   1  17   0.0061   0.0068   0.0152   0.0030  -0.0052  -0.0034   0.00   10.4
1981 185999.600   35.667577866  139.791065757    39.4592   1  17   0.0061   0.0068   0.0152   0.0030  -0.0052  -0.0034   0.00    7.1
1981 185999.800   35.667577846  139.791065746    39.4638   1  17   0.0061   0.0068   0.0152   0.0030  -0.0052  -0.0034   0.00   10.4
1981 186000.000   35.667577860  139.791065721    39.4587   1  17   0.0061   0.0068   0.0152   0.0030  -0.0052  -0.0034   0.00   11.2
1981 186000.200   35.667577862  139.791065734    39.4605   1  17   0.0061   0.0068   0.0152   0.0030  -0.0052  -0.0034   0.00   11.2
1981 186000.400   35.667577849  139.791065755    39.4559   1  17   0.0061   0.0068   0.0152   0.0030  -0.0052  -0.0034   0.00    8.5
1981 186000.600   35.667577873  139.791065725    39.4667   1  17   0.0061   0.0068   0.0152   0.0030  -0.0052  -0.0034   0.00    5.6
1981 186000.800   35.667577847  139.791065768    39.4574   1  17   0.0061   0.0068   0.0152   0.0030  -0.0052  -0.0034   0.00   10.6
1981 186001.000   35.667577851  139.791065753    39.4653   1  17   0.0061   0.0068   0.0152   0.0030  -0.0052  -0.0034   0.00    9.4
1981 186001.200   35.667577860  139.791065739    39.4599   1  17   0.0061   0.0068   0.0152   0.0030  -0.0052  -0.0034   0.00   10.3
1981 186001.400   35.667577859  139.791065754    39.4546   1  17   0.0061   0.0068   0.0152   0.0030  -0.0052  -0.0034   0.00   18.2
1981 186001.600   35.667577854  139.791065752    39.4592   1  17   0.0061   0.0068   0.0152   0.0030  -0.0052  -0.0034   0.00   11.2
1981 186001.800   35.667577855  139.791065747    39.4607   1  17   0.0061   0.0068   0.0152   0.0030  -0.0052  -0.0034   0.00   13.3
1981 186002.000   35.667577843  139.791065746    39.4653   1  17   0.0061   0.0068   0.0152   0.0030  -0.0052  -0.0034   0.00   10.5
1981 186002.200   35.667577849  139.791065740    39.4576   1  17   0.0061   0.0068   0.0152   0.0030  -0.0052  -0.0034   0.00   20.2
1981 186002.400   35.667577873  139.791065775    39.4629   1  17   0.0061   0.0068   0.0152   0.0030  -0.0052  -0.0034   0.00    9.5
1981 186002.600   35.667577863  139.791065753    39.4560   1  17   0.0061   0.0068   0.0152   0.0030  -0.0052  -0.0034   0.00   24.6
1981 186002.800   35.667577862  139.791065759    39.4609   1  17   0.0061   0.0068   0.0152   0.0030  -0.0052  -0.0034   0.00   14.4
1981 186003.000   35.667577859  139.791065763    39.4627   1  17   0.0061   0.0068   0.0152   0.0030  -0.0052  -0.0034   0.00   27.2
1981 186003.200   35.667577859  139.791065789    39.4562   1  17   0.0061   0.0068   0.0152   0.0030  -0.0052  -0.0034   0.00   24.1
1981 186003.400   35.667577865  139.791065745    39.4602   1  17   0.0061   0.0068   0.0152   0.0030  -0.0052  -0.0034   0.00   11.6
1981 186003.600   35.667577858  139.791065768    39.4578   1  17   0.0061   0.0068   0.0152   0.0030  -0.0052  -0.0034   0.00   25.1
1981 186003.800   35.667577860  139.791065773    39.4648   1  17   0.0061   0.0068   0.0152   0.0030  -0.0052  -0.0034   0.00   23.3
1981 186004.000   35.667577858  139.791065767    39.4609   1  17   0.0061   0.0068   0.0152   0.0030  -0.0052  -0.0034   0.00   12.8
1981 186004.200   35.667577867  139.791065761    39.4589   1  17   0.0061   0.0068   0.0152   0.0030  -0.0052  -0.0034   0.00   16.6
1981 186004.400   35.667577869  139.791065785    39.4580   1  17   0.0061   0.0068   0.0152   0.0030  -0.0052  -0.0034   0.00   12.2
1981 186004.600   35.667577871  139.791065765    39.4574   1  17   0.0061   0.0068   0.0152   0.0030  -0.0052  -0.0034   0.00   11.5
1981 186004.800   35.667577874  139.791065779    39.4580   1  17   0.0061   0.0068   0.0152   0.0030  -0.0052  -0.0034   0.00   11.3
1981 186005.000   35.667577913  139.791065755    39.4643   1  17   0.0061   0.0068   0.0152   0.0030  -0.0052  -0.0034   0.00    6.4
1981 186005.200   35.667577891  139.791065776    39.4545   1  17   0.0061   0.0068   0.0152   0.0030  -0.0052  -0.0034   0.00   13.3
1981 186005.400   35.667577890  139.791065781    39.4544   1  17   0.0061   0.0068   0.0152   0.0030  -0.0052  -0.0034   0.00    8.2
1981 186005.600   35.667577885  139.791065806    39.4558   1  17   0.0061   0.0068   0.0152   0.0030  -0.0052  -0.0034   0.00    6.1
1981 186005.800   35.667577903  139.791065803    39.4542   1  17   0.0061   0.0068   0.0152   0.0030  -0.0052  -0.0034   0.00    7.8
1981 186006.000   35.667577898  139.791065779    39.4562   1  17   0.0061   0.0068   0.0152   0.0030  -0.0052  -0.0034   0.00    7.0
1981 186006.200   35.667577905  139.791065779    39.4582   1  17   0.0061   0.0068   0.0152   0.0030  -0.0052  -0.0034   0.00    7.3
1981 186006.400   35.667577906  139.791065800    39.4530   1  17   0.0061   0.0068   0.0152   0.0030  -0.0052  -0.0034   0.00    6.3
1981 186006.600   35.667577882  139.791065784    39.4574   1  17   0.0061   0.0068   0.0152   0.0030  -0.0052  -0.0034   0.00    6.4
1981 186006.800   35.667577871  139.791065753    39.4592   1  17   0.0061   0.0068   0.0152   0.0030  -0.0052  -0.0034   0.00    6.8
1981 186007.000   35.667577891  139.791065770    39.4554   1  17   0.0061   0.0068   0.0152   0.0030  -0.0052  -0.0034   0.00    6.4
1981 186007.200   35.667577892  139.791065780    39.4547   1  17   0.0061   0.0068   0.0152   0.0030  -0.0052  -0.0034   0.00    8.0
1981 186007.400   35.667577890  139.791065750    39.4516   1  17   0.0060   0.0068   0.0152   0.0030  -0.0052  -0.0034   0.00    4.7
1981 186007.600   35.667577901  139.791065750    39.4563   1  17   0.0060   0.0068   0.0152   0.0030  -0.0052  -0.0034   0.00    4.1
1981 186007.800   35.667577865  139.791065763    39.4555   1  17   0.0060   0.0068   0.0152   0.0030  -0.0052  -0.0034   0.00    4.1
1981 186008.000   35.667577882  139.791065782    39.4561   1  17   0.0060   0.0068   0.0152   0.0030  -0.0052  -0.0034   0.00    3.4
1981 186008.200   35.667577886  139.791065749    39.4537   1  17   0.0060   0.0068   0.0152   0.0030  -0.0052  -0.0034   0.00    3.2
1981 186008.400   35.667577888  139.791065778    39.4561   1  17   0.0060   0.0068   0.0152   0.0030  -0.0052  -0.0034   0.00    4.0
1981 186008.600   35.667577887  139.791065777    39.4542   1  17   0.0060   0.0068   0.0152   0.0030  -0.0052  -0.0034   0.00    3.2
1981 186008.800   35.667577880  139.791065779    39.4533   1  17   0.0060   0.0068   0.0152   0.0030  -0.0052  -0.0034   0.00    4.0
1981 186009.000   35.667577893  139.791065779    39.4534   1  17   0.0060   0.0068   0.0152   0.0030  -0.0052  -0.0034   0.00    3.4
1981 186009.200   35.667585563  139.791075381    38.9093   2  17   0.5120   0.5649   1.3113   0.2397  -0.5088  -0.2656   0.00    2.6
1981 186009.400   35.667585070  139.791076447    38.9349   2  17   0.5120   0.5649   1.3113   0.2397  -0.5088  -0.2655   0.00    2.8
1981 186009.600   35.667585453  139.791076092    39.4561   2  17   0.5120   0.5649   1.3112   0.2397  -0.5088  -0.2655   0.00    2.9
1981 186009.800   35.667577874  139.791065768    39.4535   1  17   0.0060   0.0068   0.0152   0.0030  -0.0052  -0.0034   0.00    3.0
1981 186010.000   35.667577886  139.791065774    39.4535   1  17   0.0060   0.0068   0.0152   0.0030  -0.0052  -0.0034   0.00    3.5
1981 186010.200   35.667577881  139.791065761    39.4506   1  17   0.0060   0.0068   0.0152   0.0030  -0.0052  -0.0034   0.00    3.4
1981 186010.400   35.667577882  139.791065773    39.4559   1  17   0.0060   0.0068   0.0152   0.0030  -0.0052  -0.0034   0.00    4.0
1981 186010.600   35.667577873  139.791065783    39.4531   1  17   0.0060   0.0068   0.0152   0.0030  -0.0052  -0.0034   0.00    3.6
1981 186010.800   35.667585356  139.791076657    38.8404   2  17   0.5119   0.5648   1.3111   0.2396  -0.5086  -0.2652   0.00    2.9
1981 186011.000   35.667585538  139.791077680    38.6848   2  17   0.5119   0.5648   1.3110   0.2396  -0.5086  -0.2652   0.00    2.8
1981 186011.200   35.667586478  139.791077929    38.6037   2  17   0.5119   0.5648   1.3110   0.2396  -0.5086  -0.2651   0.00    2.6
1981 186011.400   35.667584892  139.791077537    38.7638   2  17   0.5119   0.5648   1.3110   0.2396  -0.5086  -0.2651   0.00    2.9
1981 186011.600   35.667585494  139.791078787    38.3490   2  17   0.5119   0.5648   1.3110   0.2395  -0.5085  -0.2650   0.00    2.8
1981 186011.800   35.667585855  139.791079787    38.5741   2  17   0.5119   0.5648   1.3109   0.2395  -0.5085  -0.2650   0.00    2.4
1981 186012.000   35.667586171  139.791080055    38.8259   2  17   0.5119   0.5648   1.3109   0.2395  -0.5085  -0.2649   0.00    2.2
1981 186012.200   35.667585840  139.791079588    38.9533   2  17   0.5119   0.5648   1.3109   0.2395  -0.5085  -0.2649   0.00    2.5
1981 186012.400   35.667585536  139.791078998    39.0901   2  17   0.5119   0.5648   1.3109   0.2395  -0.5085  -0.2649   0.00    2.5
1981 186012.600   35.667584051  139.791079649    38.7959   2  17   0.5119   0.5648   1.3108   0.2395  -0.5084  -0.2648   0.00    2.9
1981 186012.800   35.667583819  139.791079539    39.1778   2  17   0.5119   0.5648   1.3108   0.2394  -0.5084  -0.2648   0.00    2.9
1981 186013.000   35.667582912  139.791080273    39.0601   2  17   0.5119   0.5648   1.3108   0.2394  -0.5084  -0.2647   0.00    2.6
1981 186013.200   35.667582132  139.791079845    38.8606   2  17   0.5119   0.5648   1.3107   0.2394  -0.5084  -0.2647   0.00    3.0
1981 186013.400   35.667577895  139.791065795    39.4502   1  17   0.0060   0.0068   0.0152   0.0030  -0.0052  -0.0034   0.00    3.3
1981 186013.600   35.667577882  139.791065780    39.4504   1  17   0.0060   0.0068   0.0152   0.0030  -0.0052  -0.0034   0.00    3.3
1981 186013.800   35.667582319  139.791080737    39.2001   2  17   0.5119   0.5648   1.3107   0.2394  -0.5083  -0.2645   0.00    2.4
1981 186014.000   35.667582518  139.791081092    39.1598   2  17   0.5119   0.5647   1.3106   0.2394  -0.5083  -0.2645   0.00    2.4
1981 186014.200   35.667582781  139.791082009    39.0959   2  17   0.5119   0.5647   1.3106   0.2393  -0.5083  -0.2644   0.00    1.8
1981 186014.400   35.667582368  139.791083281    38.7717   2  17   0.5119   0.5647   1.3106   0.2393  -0.5082  -0.2644   0.00    1.7
1981 186014.600   35.667583566  139.791082805    39.2056   2  17   0.5119   0.5647   1.3105   0.2393  -0.5082  -0.2644   0.00    1.7
1981 186014.800   35.667583756  139.791082098    39.3448   2  17   0.5119   0.5647   1.3105   0.2393  -0.5082  -0.2643   0.00    1.8
1981 186015.000   35.667583543  139.791082195    39.2559   2  17   0.5119   0.5647   1.3105   0.2393  -0.5082  -0.2643   0.00    1.8
1981 186015.200   35.667583900  139.791082541    39.2076   2  17   0.5119   0.5647   1.3105   0.2393  -0.5081  -0.2642   0.00    1.8
1981 186015.400   35.667583653  139.791082519    39.1847   2  17   0.5119   0.5647   1.3104   0.2392  -0.5081  -0.2642   0.00    1.9
1981 186015.600   35.667583768  139.791082615    38.5153   2  17   0.5119   0.5647   1.3104   0.2392  -0.5081  -0.2641   0.00    1.8
1981 186015.800   35.667583538  139.791083662    38.1930   2  17   0.5119   0.5647   1.3104   0.2392  -0.5081  -0.2641   0.00    1.8
1981 186016.000   35.667582831  139.791084477    38.4267   2  17   0.5119   0.5647   1.3104   0.2392  -0.5081  -0.2640   0.00    1.6
1981 186016.200   35.667582685  139.791084347    38.4594   2  17   0.5119   0.5647   1.3103   0.2392  -0.5080  -0.2640   0.00    1.6
1981 186016.400   35.667582176  139.791083792    38.3672   2  17   0.5119   0.5647   1.3103   0.2392  -0.5080  -0.2640   0.00    1.5
1981 186016.600   35.667581280  139.791083522    38.2438   2  17   0.5119   0.5647   1.3103   0.2391  -0.5080  -0.2639   0.00    1.8
1981 186016.800   35.667581257  139.791083000    37.9143   2  17   0.5119   0.5647   1.3102   0.2391  -0.5080  -0.2639   0.00    2.1
1981 186017.000   35.667581072  139.791083168    38.0302   2  17   0.5119   0.5647   1.3102   0.2391  -0.5079  -0.2638   0.00    2.2
1981 186017.200   35.667580017  139.791084248    37.9985   2  17   0.5119   0.5646   1.3102   0.2391  -0.5079  -0.2638   0.00    1.6
1981 186017.400   35.667579550  139.791083866    37.9696   2  17   0.5119   0.5646   1.3102   0.2391  -0.5079  -0.2637   0.00    1.7
1981 186017.600   35.667579197  139.791083644    38.1121   2  17   0.5119   0.5646   1.3101   0.2391  -0.5079  -0.2637   0.00    1.6
1981 186017.800   35.667579545  139.791082497    37.8118   2  17   0.5118   0.5646   1.3101   0.2391  -0.5079  -0.2636   0.00    2.1
1981 186018.000   35.667578900  139.791081468    38.0515   2  17   0.5118   0.5646   1.3101   0.2390  -0.5078  -0.2636   0.00    2.5
1981 186018.200   35.667577901  139.791081137    38.4750   2  17   0.5118   0.5646   1.3100   0.2390  -0.5078  -0.2636   0.00    2.4
1981 186018.400   35.667578005  139.791080958    38.3497   2  17   0.5118   0.5646   1.3100   0.2390  -0.5078  -0.2635   0.00    2.4
1981 186018.600   35.667578033  139.791080758    38.2666   2  17   0.5118   0.5646   1.3100   0.2390  -0.5078  -0.2635   0.00    2.5
1981 186018.800   35.667577889  139.791065779    39.4535   1  17   0.0060   0.0068   0.0152   0.0030  -0.0052  -0.0033   0.00    3.0
1981 186019.000   35.667577883  139.791065774    39.4544   1  17   0.0060   0.0068   0.0152   0.0030  -0.0052  -0.0033   0.00    3.4
1981 186019.200   35.667577902  139.791065780    39.4482   1  17   0.0060   0.0068   0.0152   0.0030  -0.0052  -0.0033   0.00    3.7
1981 186019.400   35.667578255  139.791078693    38.1143   2  17   0.5118   0.5646   1.3099   0.2389  -0.5077  -0.2633   0.00    2.8
1981 186019.600   35.667577891  139.791065798    39.4512   1  17   0.0060   0.0068   0.0152   0.0030  -0.0052  -0.0033   0.00    3.5
1981 186019.800   35.667577905  139.791065775    39.4476   1  17   0.0060   0.0068   0.0152   0.0030  -0.0052  -0.0033   0.00    3.4
1981 186020.000   35.667576545  139.791077574    38.3096   2  17   0.5118   0.5646   1.3098   0.2389  -0.5076  -0.2632   0.00    2.8
1981 186020.200   35.667577895  139.791065789    39.4552   1  17   0.0060   0.0068   0.0152   0.0030  -0.0052  -0.0033   0.00    3.4
1981 186020.400   35.667577872  139.791065777    39.4530   1  17   0.0060   0.0068   0.0152   0.0030  -0.0052  -0.0033   0.00    4.0
1981 186020.600   35.667577897  139.791065800    39.4482   1  17   0.0060   0.0068   0.0152   0.0030  -0.0052  -0.0033   0.00    3.7
1981 186020.800   35.667577892  139.791065759    39.4524   1  17   0.0060   0.0068   0.0152   0.0030  -0.0052  -0.0033   0.00    3.3
1981 186021.000   35.667577895  139.791065781    39.4536   1  17   0.0060   0.0068   0.0152   0.0030  -0.0052  -0.0033   0.00    4.1
1981 186021.200   35.667577897  139.791065778    39.4488   1  17   0.0060   0.0068   0.0152   0.0030  -0.0052  -0.0033   0.00    3.9
1981 186021.400   35.667577883  139.791065773    39.4495   1  17   0.0060   0.0068   0.0152   0.0030  -0.0052  -0.0033   0.00    3.1
1981 186021.600   35.667577087  139.791078948    38.4019   2  17   0.5118   0.5645   1.3096   0.2388  -0.5074  -0.2628   0.00    2.7
1981 186021.800   35.667576286  139.791077745    38.5249   2  17   0.5118   0.5645   1.3095   0.2387  -0.5074  -0.2628   0.00    3.0
1981 186022.000   35.667577913  139.791065792    39.4452   1  17   0.0060   0.0068   0.0152   0.0030  -0.0052  -0.0033   0.00    3.1
1981 186022.200   35.667577891  139.791065784    39.4481   1  17   0.0060   0.0068   0.0152   0.0030  -0.0052  -0.0033   0.00    3.2
1981 186022.400   35.667577890  139.791065769    39.4488   1  17   0.0060   0.0068   0.0152   0.0030  -0.0052  -0.0033   0.00    3.1
1981 186022.600   35.667577894  139.791065776    39.4544   1  17   0.0060   0.0068   0.0152   0.0030  -0.0052  -0.0033   0.00    3.8
1981 186022.800   35.667577897  139.791065798    39.4495   1  17   0.0060   0.0068   0.0152   0.0030  -0.0052  -0.0033   0.00    3.0
1981 186023.000   35.667577884  139.791065772    39.4494   1  17   0.0060   0.0068   0.0152   0.0030  -0.0052  -0.0033   0.00    3.5
1981 186023.200   35.667576986  139.791080240    39.5024   2  17   0.5118   0.5645   1.3093   0.2386  -0.5072  -0.2624   0.00    2.0
1981 186023.400   35.667577534  139.791078553    39.3649   2  17   0.5118   0.5644   1.3093   0.2386  -0.5072  -0.2624   0.00    2.9
1981 186023.600   35.667577737  139.791079172    39.1451   2  17   0.5118   0.5644   1.3093   0.2386  -0.5072  -0.2623   0.00    2.8
1981 186023.800   35.667577882  139.791065769    39.4504   1  17   0.0060   0.0068   0.0152   0.0030  -0.0052  -0.0033   0.00    4.1
1981 186024.000   35.667579512  139.791080173    38.9255   2  17   0.5118   0.5644   1.3092   0.2386  -0.5072  -0.2623   0.00    2.4
1981 186024.200   35.667580113  139.791079992    38.9818   2  17   0.5118   0.5644   1.3092   0.2385  -0.5071  -0.2622   0.00    2.4
1981 186024.400   35.667579864  139.791080008    39.0748   2  17   0.5118   0.5644   1.3092   0.2385  -0.5071  -0.2622   0.00    2.2
1981 186024.600   35.667579572  139.791079817    39.2666   2  17   0.5118   0.5644   1.3092   0.2385  -0.5071  -0.2621   0.00    2.5
1981 186024.800   35.667580229  139.791079831    39.1152   2  17   0.5118   0.5644   1.3091   0.2385  -0.5071  -0.2621   0.00    2.7
1981 186025.000   35.667579676  139.791079944    38.4877   2  17   0.5118   0.5644   1.3091   0.2385  -0.5070  -0.2620   0.00    2.6
1981 186025.200   35.667577893  139.791065759    39.4547   1  17   0.0060   0.0068   0.0152   0.0030  -0.0052  -0.0033   0.00    3.1
1981 186025.400   35.667577893  139.791065773    39.4476   1  17   0.0060   0.0068   0.0152   0.0030  -0.0052  -0.0033   0.00    3.2
1981 186025.600   35.667578738  139.791078439    38.4110   2  17   0.5117   0.5644   1.3090   0.2384  -0.5070  -0.2619   0.00    2.8
1981 186025.800   35.667577899  139.791065761    39.4494   1  17   0.0060   0.0068   0.0152   0.0030  -0.0052  -0.0033   0.00    3.9
1981 186026.000   35.667577888  139.791065776    39.4488   1  17   0.0060   0.0068   0.0152   0.0030  -0.0052  -0.0033   0.00    4.4
1981 186026.200   35.667577889  139.791065763    39.4539   1  17   0.0060   0.0068   0.0152   0.0030  -0.0052  -0.0033   0.00    3.5
1981 186026.400   35.667577885  139.791065771    39.4504   1  17   0.0060   0.0068   0.0152   0.0030  -0.0052  -0.0033   0.00    3.5
1981 186026.600   35.667577888  139.791065781    39.4527   1  17   0.0060   0.0068   0.0152   0.0030  -0.0052  -0.0033   0.00    3.3
1981 186026.800   35.667579599  139.791075789    37.4091   2  17   0.5117   0.5643   1.3088   0.2383  -0.5068  -0.2616   0.00    2.5
1981 186027.000   35.667579933  139.791077122    37.1001   2  17   0.5117   0.5643   1.3088   0.2383  -0.5068  -0.2616   0.00    2.1
1981 186027.200   35.667580734  139.791077631    37.2170   2  17   0.5117   0.5643   1.3088   0.2383  -0.5068  -0.2615   0.00    2.4
1981 186027.400   35.667579229  139.791077588    37.4474   2  17   0.5117   0.5643   1.3088   0.2383  -0.5068  -0.2615   0.00    2.6
1981 186027.600   35.667580556  139.791077188    37.4206   2  17   0.5117   0.5643   1.3087   0.2383  -0.5068  -0.2615   0.00    2.5
1981 186027.800   35.667581772  139.791077004    37.3624   2  17   0.5117   0.5643   1.3087   0.2383  -0.5067  -0.2614   0.00    2.2
1981 186028.000   35.667582014  139.791076583    37.6419   2  17   0.5117   0.5643   1.3087   0.2382  -0.5067  -0.2614   0.00    2.9
1981 186028.200   35.667577885  139.791065760    39.4528   1  17   0.0060   0.0068   0.0152   0.0030  -0.0052  -0.0033   0.00    3.0
1981 186028.400   35.667581247  139.791076827    37.2752   2  17   0.5117   0.5643   1.3086   0.2382  -0.5067  -0.2613   0.00    2.3
1981 186028.600   35.667581064  139.791077147    37.2822   2  17   0.5117   0.5643   1.3086   0.2382  -0.5066  -0.2612   0.00    2.5
1981 186028.800   35.667581358  139.791076236    37.0560   2  17   0.5117   0.5643   1.3086   0.2382  -0.5066  -0.2612   0.00    1.8
1981 186029.000   35.667580977  139.791076749    36.9015   2  17   0.5117   0.5643   1.3085   0.2382  -0.5066  -0.2611   0.00    2.3
1981 186029.200   35.667581443  139.791077093    36.8630   2  17   0.5117   0.5643   1.3085   0.2382  -0.5066  -0.2611   0.00    1.8
1981 186029.400   35.667581495  139.791076415    36.9887   2  17   0.5117   0.5643   1.3085   0.2381  -0.5066  -0.2610   0.00    1.8
1981 186029.600   35.667582959  139.791077055    36.7910   2  17   0.5117   0.5643   1.3085   0.2381  -0.5065  -0.2610   0.00    1.7
1981 186029.800   35.667582484  139.791077430    36.8502   2  17   0.5117   0.5642   1.3084   0.2381  -0.5065  -0.2610   0.00    2.1
1981 186030.000   35.667582953  139.791077749    36.6613   2  17   0.5117   0.5642   1.3084   0.2381  -0.5065  -0.2609   0.00    1.9
1981 186030.200   35.667581335  139.791077130    36.6616   2  17   0.5117   0.5642   1.3084   0.2381  -0.5065  -0.2609   0.00    1.8
1981 186030.400   35.667581676  139.791076877    36.6104   2  17   0.5117   0.5642   1.3083   0.2381  -0.5064  -0.2608   0.00    1.9
1981 186030.600   35.667581992  139.791077206    36.3588   2  17   0.5117   0.5642   1.3083   0.2380  -0.5064  -0.2608   0.00    1.4
1981 186030.800   35.667583020  139.791077712    36.3703   2  17   0.5117   0.5642   1.3083   0.2380  -0.5064  -0.2607   0.00    1.4
1981 186031.000   35.667583723  139.791077479    36.5742   2  17   0.5117   0.5642   1.3083   0.2380  -0.5064  -0.2607   0.00    1.8
1981 186031.200   35.667584082  139.791077805    36.5069   2  17   0.5117   0.5642   1.3082   0.2380  -0.5064  -0.2606   0.00    1.6
1981 186031.400   35.667584200  139.791076078    36.9820   2  17   0.5117   0.5642   1.3082   0.2380  -0.5063  -0.2606   0.00    1.9
1981 186031.600   35.667584894  139.791076386    36.8606   2  17   0.5117   0.5642   1.3082   0.2380  -0.5063  -0.2606   0.00    1.7
1981 186031.800   35.667584948  139.791075963    36.8353   2  17   0.5117   0.5642   1.3082   0.2379  -0.5063  -0.2605   0.00    1.7
1981 186032.000   35.667585517  139.791076086    36.9731   2  17   0.5117   0.5642   1.3081   0.2379  -0.5063  -0.2605   0.00    1.9
1981 186032.200   35.667584581  139.791076378    36.5428   2  17   0.5117   0.5642   1.3081   0.2379  -0.5062  -0.2604   0.00    1.6
1981 186032.400   35.667584725  139.791076498    36.6377   2  17   0.5117   0.5642   1.3081   0.2379  -0.5062  -0.2604   0.00    1.7
1981 186032.600   35.667585548  139.791076247    36.4752   2  17   0.5117   0.5642   1.3080   0.2379  -0.5062  -0.2603   0.00    1.6
1981 186032.800   35.667585960  139.791076882    36.3463   2  17   0.5117   0.5642   1.3080   0.2379  -0.5062  -0.2603   0.00    1.6
1981 186033.000   35.667585212  139.791075553    36.5970   2  17   0.5117   0.5641   1.3080   0.2379  -0.5062  -0.2602   0.00    1.8
1981 186033.200   35.667585218  139.791074944    36.7437   2  17   0.5117   0.5641   1.3080   0.2378  -0.5061  -0.2602   0.00    2.0
1981 186033.400   35.667585355  139.791074778    36.8818   2  17   0.5116   0.5641   1.3079   0.2378  -0.5061  -0.2601   0.00    1.9
1981 186033.600   35.667584598  139.791074949    36.8669   2  17   0.5116   0.5641   1.3079   0.2378  -0.5061  -0.2601   0.00    1.9
1981 186033.800   35.667583732  139.791075282    36.7052   2  17   0.5116   0.5641   1.3079   0.2378  -0.5061  -0.2601   0.00    2.0
1981 186034.000   35.667583293  139.791074627    36.6945   2  17   0.5116   0.5641   1.3078   0.2378  -0.5060  -0.2600   0.00    1.7
1981 186034.200   35.667584197  139.791075169    36.6103   2  17   0.5116   0.5641   1.3078   0.2378  -0.5060  -0.2600   0.00    1.8
1981 186034.400   35.667583836  139.791073906    36.6116   2  17   0.5116   0.5641   1.3078   0.2377  -0.5060  -0.2599   0.00    1.8
1981 186034.600   35.667584335  139.791074610    36.4878   2  17   0.5116   0.5641   1.3078   0.2377  -0.5060  -0.2599   0.00    1.6
1981 186034.800   35.667583485  139.791073985    36.4750   2  17   0.5116   0.5641   1.3077   0.2377  -0.5060  -0.2598   0.00    1.6
1981 186035.000   35.667583484  139.791074274    36.2857   2  17   0.5116   0.5641   1.3077   0.2377  -0.5059  -0.2598   0.00    1.2
1981 186035.200   35.667582896  139.791073656    36.4574   2  17   0.5116   0.5641   1.3077   0.2377  -0.5059  -0.2597   0.00    1.5
1981 186035.400   35.667582001  139.791073972    36.6392   2  17   0.5116   0.5641   1.3077   0.2377  -0.5059  -0.2597   0.00    1.4
1981 186035.600   35.667581148  139.791073085    36.5604   2  17   0.5116   0.5641   1.3076   0.2376  -0.5059  -0.2597   0.00    1.5
1981 186035.800   35.667581544  139.791072059    36.8163   2  17   0.5116   0.5641   1.3076   0.2376  -0.5058  -0.2596   0.00    1.9
1981 186036.000   35.667581396  139.791072898    36.6911   2  17   0.5116   0.5641   1.3076   0.2376  -0.5058  -0.2596   0.00    1.5
1981 186036.200   35.667581149  139.791071926    36.9197   2  17   0.5116   0.5640   1.3075   0.2376  -0.5058  -0.2595   0.00    2.2
1981 186036.400   35.667582015  139.791070615    37.2925   2  17   0.5116   0.5640   1.3075   0.2376  -0.5058  -0.2595   0.00    2.4
1981 186036.600   35.667581486  139.791070925    37.2480   2  17   0.5116   0.5640   1.3075   0.2376  -0.5057  -0.2594   0.00    2.4
1981 186036.800   35.667580958  139.791071189    37.0061   2  17   0.5116   0.5640   1.3075   0.2376  -0.5057  -0.2594   0.00    1.8
1981 186037.000   35.667580813  139.791070766    36.8290   2  17   0.5116   0.5640   1.3074   0.2375  -0.5057  -0.2593   0.00    1.5
1981 186037.200   35.667580395  139.791071188    37.0854   2  17   0.5116   0.5640   1.3074   0.2375  -0.5057  -0.2593   0.00    1.8
1981 186037.400   35.667580420  139.791071779    37.0232   2  17   0.5116   0.5640   1.3074   0.2375  -0.5057  -0.2592   0.00    1.8
1981 186037.600   35.667580222  139.791070116    37.1711   2  17   0.5116   0.5640   1.3074   0.2375  -0.5056  -0.2592   0.00    2.2
1981 186037.800   35.667579995  139.791069111    37.3294   2  17   0.5116   0.5640   1.3073   0.2375  -0.5056  -0.2592   0.00    2.3
1981 186038.000   35.667577886  139.791065733    39.4573   1  17   0.0060   0.0068   0.0152   0.0030  -0.0052  -0.0033   0.00    3.0
1981 186038.200   35.667580863  139.791069265    37.4449   2  17   0.5116   0.5640   1.3073   0.2374  -0.5056  -0.2591   0.00    2.7
1981 186038.400   35.667577898  139.791065760    39.4549   1  17   0.0060   0.0068   0.0152   0.0030  -0.0052  -0.0033   0.00    3.3
1981 186038.600   35.667579474  139.791069341    37.5274   2  17   0.5116   0.5640   1.3072   0.2374  -0.5055  -0.2590   0.00    2.1
1981 186038.800   35.667579759  139.791068949    37.5489   2  17   0.5116   0.5640   1.3072   0.2374  -0.5055  -0.2589   0.00    2.4
1981 186039.000   35.667580416  139.791069000    37.4421   2  17   0.5116   0.5640   1.3072   0.2374  -0.5055  -0.2589   0.00    1.7
1981 186039.200   35.667580176  139.791068328    37.3371   2  17   0.5116   0.5640   1.3071   0.2374  -0.5055  -0.2588   0.00    2.5
1981 186039.400   35.667581362  139.791070134    37.3606   2  17   0.5116   0.5639   1.3071   0.2373  -0.5054  -0.2588   0.00    2.2
1981 186039.600   35.667581808  139.791070505    37.1680   2  17   0.5116   0.5639   1.3071   0.2373  -0.5054  -0.2588   0.00    2.2
1981 186039.800   35.667581623  139.791070680    37.0541   2  17   0.5116   0.5639   1.3070   0.2373  -0.5054  -0.2587   0.00    2.0
1981 186040.000   35.667582205  139.791070945    37.0382   2  17   0.5116   0.5639   1.3070   0.2373  -0.5054  -0.2587   0.00    1.6
1981 186040.200   35.667581517  139.791069803    36.8961   2  17   0.5116   0.5639   1.3070   0.2373  -0.5053  -0.2586   0.00    1.7
1981 186040.400   35.667581642  139.791069285    36.8069   2  17   0.5116   0.5639   1.3070   0.2373  -0.5053  -0.2586   0.00    1.6
1981 186040.600   35.667581414  139.791068549    36.8424   2  17   0.5116   0.5639   1.3069   0.2373  -0.5053  -0.2585   0.00    1.5
1981 186040.800   35.667581319  139.791068327    36.6860   2  17   0.5116   0.5639   1.3069   0.2372  -0.5053  -0.2585   0.00    1.2
1981 186041.000   35.667581216  139.791066560    36.8406   2  17   0.5116   0.5639   1.3069   0.2372  -0.5053  -0.2584   0.00    1.2
1981 186041.200   35.667580659  139.791065570    37.2279   2  17   0.5116   0.5639   1.3069   0.2372  -0.5052  -0.2584   0.00    1.4
1981 186041.400   35.667580716  139.791065976    37.0787   2  17   0.5116   0.5639   1.3068   0.2372  -0.5052  -0.2583   0.00    1.3
1981 186041.600   35.667581184  139.791066658    37.0765   2  17   0.5115   0.5639   1.3068   0.2372  -0.5052  -0.2583   0.00    1.4
1981 186041.800   35.667580747  139.791065239    37.2676   2  17   0.5115   0.5639   1.3068   0.2372  -0.5052  -0.2583   0.00    1.9
1981 186042.000   35.667579425  139.791063707    37.3841   2  17   0.5115   0.5639   1.3067   0.2371  -0.5051  -0.2582   0.00    1.9
1981 186042.200   35.667579762  139.791063679    37.4111   2  17   0.5115   0.5639   1.3067   0.2371  -0.5051  -0.2582   0.00    1.6
1981 186042.400   35.667579482  139.791063495    37.4759   2  17   0.5115   0.5639   1.3067   0.2371  -0.5051  -0.2581   0.00    1.9
1981 186042.600   35.667581557  139.791063275    37.9149   2  17   0.5115   0.5638   1.3067   0.2371  -0.5051  -0.2581   0.00    1.9
1981 186042.800   35.667581042  139.791062556    37.5440   2  17   0.5115   0.5638   1.3066   0.2371  -0.5051  -0.2580   0.00    1.5
1981 186043.000   35.667581356  139.791061560    37.6356   2  17   0.5115   0.5638   1.3066   0.2371  -0.5050  -0.2580   0.00    1.9
1981 186043.200   35.667581095  139.791060917    37.9478   2  17   0.5115   0.5638   1.3066   0.2370  -0.5050  -0.2579   0.00    2.3
1981 186043.400   35.667581410  139.791060696    37.7868   2  17   0.5115   0.5638   1.3066   0.2370  -0.5050  -0.2579   0.00    1.8
1981 186043.600   35.667580242  139.791060091    37.9570   2  17   0.5115   0.5638   1.3065   0.2370  -0.5050  -0.2578   0.00    1.6
1981 186043.800   35.667579814  139.791059231    38.0222   2  17   0.5115   0.5638   1.3065   0.2370  -0.5049  -0.2578   0.00    1.9
1981 186044.000   35.667579738  139.791058284    38.0513   2  17   0.5115   0.5638   1.3065   0.2370  -0.5049  -0.2578   0.00    1.6
1981 186044.200   35.667579343  139.791056702    37.9839   2  17   0.5115   0.5638   1.3064   0.2370  -0.5049  -0.2577   0.00    1.3
1981 186044.400   35.667579512  139.791056231    38.2086   2  17   0.5115   0.5638   1.3064   0.2370  -0.5049  -0.2577   0.00    1.4
1981 186044.600   35.667580200  139.791054539    38.5043   2  17   0.5115   0.5638   1.3064   0.2369  -0.5049  -0.2576   0.00    1.5
1981 186044.800   35.667579832  139.791052674    38.5659   2  17   0.5115   0.5638   1.3064   0.2369  -0.5048  -0.2576   0.00    1.5
1981 186045.000   35.667580506  139.791052284    38.2896   2  17   0.5115   0.5638   1.3063   0.2369  -0.5048  -0.2575   0.00    1.2
1981 186045.200   35.667580397  139.791052504    38.4740   2  17   0.5115   0.5638   1.3063   0.2369  -0.5048  -0.2575   0.00    1.4
1981 186045.400   35.667580157  139.791051782    38.6671   2  17   0.5115   0.5638   1.3063   0.2369  -0.5048  -0.2574   0.00    1.6
1981 186045.600   35.667578739  139.791053521    38.1761   2  17   0.5115   0.5638   1.3062   0.2369  -0.5047  -0.2574   0.00    1.4
1981 186045.800   35.667579279  139.791053394    38.1289   2  17   0.5115   0.5637   1.3062   0.2368  -0.5047  -0.2574   0.00    1.6
1981 186046.000   35.667578748  139.791053300    38.3886   2  17   0.5115   0.5637   1.3062   0.2368  -0.5047  -0.2573   0.00    1.2
1981 186046.200   35.667578407  139.791053001    38.4225   2  17   0.5115   0.5637   1.3062   0.2368  -0.5047  -0.2573   0.00    1.3
1981 186046.400   35.667578238  139.791052551    38.5422   2  17   0.5115   0.5637   1.3061   0.2368  -0.5047  -0.2572   0.00    1.5
1981 186046.600   35.667579954  139.791052959    38.4526   2  17   0.5115   0.5637   1.3061   0.2368  -0.5046  -0.2572   0.00    1.5
1981 186046.800   35.667579879  139.791052456    38.1472   2  17   0.5115   0.5637   1.3061   0.2368  -0.5046  -0.2571   0.00    1.3
1981 186047.000   35.667578210  139.791052251    38.6264   2  17   0.5115   0.5637   1.3061   0.2368  -0.5046  -0.2571   0.00    1.7
1981 186047.200   35.667578198  139.791049454    38.3928   2  17   0.5115   0.5637   1.3060   0.2367  -0.5046  -0.2570   0.00    1.2
1981 186047.400   35.667577971  139.791049837    38.4087   2  17   0.5115   0.5637   1.3060   0.2367  -0.5045  -0.2570   0.00    1.3
1981 186047.600   35.667578091  139.791048309    37.8619   2  17   0.5115   0.5637   1.3060   0.2367  -0.5045  -0.2569   0.00    1.0
1981 186047.800   35.667577815  139.791050452    37.7580   2  17   0.5115   0.5637   1.3059   0.2367  -0.5045  -0.2569   0.00    1.0
1981 186048.000   35.667577867  139.791048139    38.0774   2  17   0.5115   0.5637   1.3059   0.2367  -0.5045  -0.2569   0.00    1.0
1981 186048.200   35.667577797  139.791047408    38.0852   2  17   0.5115   0.5637   1.3059   0.2367  -0.5045  -0.2568   0.00    1.1
1981 186048.400   35.667577990  139.791046113    38.2478   2  17   0.5115   0.5637   1.3059   0.2366  -0.5044  -0.2568   0.00    1.0
1981 186048.600   35.667576750  139.791046563    38.1013   2  17   0.5115   0.5637   1.3058   0.2366  -0.5044  -0.2567   0.00    1.1
1981 186048.800   35.667577748  139.791044770    37.8868   2  17   0.5115   0.5637   1.3058   0.2366  -0.5044  -0.2567   0.00    1.0
1981 186049.000   35.667576774  139.791047058    37.7729   2  17   0.5115   0.5636   1.3058   0.2366  -0.5044  -0.2566   0.00    1.0
1981 186049.200   35.667576603  139.791046705    37.7260   2  17   0.5115   0.5636   1.3058   0.2366  -0.5043  -0.2566   0.00    1.0
1981 186049.400   35.667576873  139.791047142    37.8248   2  17   0.5115   0.5636   1.3057   0.2366  -0.5043  -0.2565   0.00    1.0
1981 186049.600   35.667577335  139.791047396    37.7173   2  17   0.5115   0.5636   1.3057   0.2365  -0.5043  -0.2565   0.00    1.1
1981 186049.800   35.667577253  139.791047582    37.5963   2  17   0.5114   0.5636   1.3057   0.2365  -0.5043  -0.2564   0.00    1.1
1981 186050.000   35.667576818  139.791048042    37.6799   2  17   0.5114   0.5636   1.3056   0.2365  -0.5043  -0.2564   0.00    1.0
1981 186050.200   35.667577834  139.791048100    38.2428   2  17   0.5114   0.5636   1.3056   0.2365  -0.5042  -0.2564   0.00    1.1
1981 186050.400   35.667578445  139.791047667    37.9939   2  17   0.5114   0.5636   1.3056   0.2365  -0.5042  -0.2563   0.00    1.1
1981 186050.600   35.667577434  139.791048556    37.7270   2  17   0.5114   0.5636   1.3056   0.2365  -0.5042  -0.2563   0.00    1.1
1981 186050.800   35.667577704  139.791048565    37.8021   2  17   0.5114   0.5636   1.3055   0.2365  -0.5042  -0.2562   0.00    1.1
1981 186051.000   35.667576844  139.791047351    37.6032   2  17   0.5114   0.5636   1.3055   0.2364  -0.5041  -0.2562   0.00    1.0
1981 186051.200   35.667576855  139.791047273    37.5012   2  17   0.5114   0.5636   1.3055   0.2364  -0.5041  -0.2561   0.00    1.2
1981 186051.400   35.667577052  139.791047017    37.2580   2  17   0.5114   0.5636   1.3055   0.2364  -0.5041  -0.2561   0.00    1.0
1981 186051.600   35.667575811  139.791047132    37.1686   2  17   0.5114   0.5636   1.3054   0.2364  -0.5041  -0.2560   0.00    1.1
1981 186051.800   35.667576707  139.791046709    37.4263   2  17   0.5114   0.5636   1.3054   0.2364  -0.5041  -0.2560   0.00    1.0
1981 186052.000   35.667577511  139.791045285    37.6092   2  17   0.5114   0.5636   1.3054   0.2364  -0.5040  -0.2559   0.00    1.1
1981 186052.200   35.667577244  139.791044954    37.5498   2  17   0.5114   0.5635   1.3053   0.2363  -0.5040  -0.2559   0.00    1.2
1981 186052.400   35.667578106  139.791044059    37.6999   2  17   0.5114   0.5635   1.3053   0.2363  -0.5040  -0.2559   0.00    1.2
1981 186052.600   35.667578602  139.791044664    37.4968   2  17   0.5114   0.5635   1.3053   0.2363  -0.5040  -0.2558   0.00    1.1
1981 186052.800   35.667578668  139.791043765    37.4544   2  17   0.5114   0.5635   1.3053   0.2363  -0.5039  -0.2558   0.00    1.0
1981 186053.000   35.667578404  139.791043319    37.4631   2  17   0.5114   0.5635   1.3052   0.2363  -0.5039  -0.2557   0.00    1.1
1981 186053.200   35.667578427  139.791043135    37.3902   2  17   0.5114   0.5635   1.3052   0.2363  -0.5039  -0.2557   0.00    1.1
1981 186053.400   35.667578792  139.791042520    36.8753   2  17   0.5114   0.5635   1.3052   0.2362  -0.5039  -0.2556   0.00    1.2
1981 186053.600   35.667578360  139.791043219    36.9195   2  17   0.5114   0.5635   1.3052   0.2362  -0.5039  -0.2556   0.00    1.0
1981 186053.800   35.667578579  139.791043837    36.7520   2  17   0.5114   0.5635   1.3051   0.2362  -0.5038  -0.2555   0.00    1.0
1981 186054.000   35.667578329  139.791043879    36.7070   2  17   0.5114   0.5635   1.3051   0.2362  -0.5038  -0.2555   0.00    1.2
1981 186054.200   35.667577830  139.791044099    36.8179   2  17   0.5114   0.5635   1.3051   0.2362  -0.5038  -0.2554   0.00    1.0
1981 186054.400   35.667577225  139.791044012    36.9486   2  17   0.5114   0.5635   1.3050   0.2362  -0.5038  -0.2554   0.00    1.2
1981 186054.600   35.667576455  139.791044113    36.9290   2  17   0.5114   0.5635   1.3050   0.2362  -0.5037  -0.2554   0.00    1.1
1981 186054.800   35.667576224  139.791043699    36.6637   2  17   0.5114   0.5635   1.3050   0.2361  -0.5037  -0.2553   0.00    1.3
1981 186055.000   35.667576357  139.791045349    36.3999   2  17   0.5114   0.5635   1.3050   0.2361  -0.5037  -0.2553   0.00    1.3
1981 186055.200   35.667576163  139.791045580    36.3265   2  17   0.5114   0.5635   1.3049   0.2361  -0.5037  -0.2552   0.00    1.1
1981 186055.400   35.667575385  139.791044537    36.2159   2  17   0.5114   0.5634   1.3049   0.2361  -0.5037  -0.2552   0.00    1.2
1981 186055.600   35.667575901  139.791043608    36.4427   2  17   0.5114   0.5634   1.3049   0.2361  -0.5036  -0.2551   0.00    1.2
1981 186055.800   35.667576670  139.791043606    36.5072   2  17   0.5114   0.5634   1.3048   0.2361  -0.5036  -0.2551   0.00    1.2
1981 186056.000   35.667576164  139.791045031    36.2560   2  17   0.5114   0.5634   1.3048   0.2360  -0.5036  -0.2550   0.00    1.2
1981 186056.200   35.667576947  139.791045887    36.0412   2  17   0.5114   0.5634   1.3048   0.2360  -0.5036  -0.2550   0.00    1.3
1981 186056.400   35.667576578  139.791044570    36.4194   2  17   0.5114   0.5634   1.3048   0.2360  -0.5035  -0.2549   0.00    1.3
1981 186056.600   35.667575752  139.791045436    36.2522   2  17   0.5114   0.5634   1.3047   0.2360  -0.5035  -0.2549   0.00    1.2
1981 186056.800   35.667576283  139.791045144    36.3590   2  17   0.5114   0.5634   1.3047   0.2360  -0.5035  -0.2549   0.00    1.2
1981 186057.000   35.667577069  139.791043642    36.5917   2  17   0.5114   0.5634   1.3047   0.2360  -0.5035  -0.2548   0.00    1.2
1981 186057.200   35.667577470  139.791044960    36.5448   2  17   0.5114   0.5634   1.3047   0.2359  -0.5035  -0.2548   0.00    1.1
1981 186057.400   35.667577784  139.791044447    36.6627   2  17   0.5114   0.5634   1.3046   0.2359  -0.5034  -0.2547   0.00    1.1
1981 186057.600   35.667577089  139.791043495    36.8587   2  17   0.5114   0.5634   1.3046   0.2359  -0.5034  -0.2547   0.00    1.1
1981 186057.800   35.667577928  139.791043932    36.8048   2  17   0.5114   0.5634   1.3046   0.2359  -0.5034  -0.2546   0.00    1.0
1981 186058.000   35.667578372  139.791044113    36.8965   2  17   0.5114   0.5634   1.3045   0.2359  -0.5034  -0.2546   0.00    1.1
1981 186058.200   35.667578567  139.791044684    36.7424   2  17   0.5113   0.5634   1.3045   0.2359  -0.5033  -0.2545   0.00    1.0
1981 186058.400   35.667578546  139.791045496    36.6695   2  17   0.5113   0.5634   1.3045   0.2359  -0.5033  -0.2545   0.00    1.2
1981 186058.600   35.667579522  139.791045681    36.5962   2  17   0.5113   0.5633   1.3045   0.2358  -0.5033  -0.2544   0.00    1.1
1981 186058.800   35.667579248  139.791046372    36.5059   2  17   0.5113   0.5633   1.3044   0.2358  -0.5033  -0.2544   0.00    1.1
1981 186059.000   35.667578600  139.791047188    36.5471   2  17   0.5113   0.5633   1.3044   0.2358  -0.5033  -0.2544   0.00    1.1
1981 186059.200   35.667578971  139.791047519    36.5496   2  17   0.5113   0.5633   1.3044   0.2358  -0.5032  -0.2543   0.00    1.5
1981 186059.400   35.667580134  139.791048295    36.5893   2  17   0.5113   0.5633   1.3044   0.2358  -0.5032  -0.2543   0.00    1.4
1981 186059.600   35.667579991  139.791047933    36.5531   2  17   0.5113   0.5633   1.3043   0.2358  -0.5032  -0.2542   0.00    1.2
1981 186059.800   35.667580764  139.791048753    36.5781   2  17   0.5113   0.5633   1.3043   0.2357  -0.5032  -0.2542   0.00    1.4
1981 186060.000   35.667580628  139.791050017    36.3569   2  17   0.5113   0.5633   1.3043   0.2357  -0.5031  -0.2541   0.00    1.4
1981 186060.200   35.667580591  139.791050455    36.3284   2  17   0.5113   0.5633   1.3042   0.2357  -0.5031  -0.2541   0.00    1.3
1981 186060.400   35.667580826  139.791051132    36.3946   2  17   0.5113   0.5633   1.3042   0.2357  -0.5031  -0.2540   0.00    1.2
1981 186060.600   35.667581444  139.791050906    36.4416   2  17   0.5113   0.5633   1.3042   0.2357  -0.5031  -0.2540   0.00    1.3
