352854.800027,$GPGGA,980036.80,3540.054985369,N,13947.463704089,E,4,16,0.7,3.293,M,36.209,M,0.8,*40
352855.000027,$GPGGA,980037.00,3540.054985299,N,13947.463704608,E,4,16,0.7,3.295,M,36.209,M,1.0,*40
352855.200027,$GPGGA,980037.20,3540.054985833,N,13947.463705518,E,4,16,0.7,3.289,M,36.209,M,0.2,*40
352855.400027,$GPGGA,980037.40,3540.054986208,N,13947.463705731,E,4,16,0.7,3.289,M,36.209,M,0.4,*40
352855.600027,$GPGGA,980037.60,3540.054986457,N,13947.463704565,E,4,16,0.7,3.291,M,36.209,M,0.6,*40
352855.800027,$GPGGA,980037.80,3540.054986516,N,13947.463705195,E,4,16,0.7,3.293,M,36.209,M,0.8,*40
352856.000026,$GPGGA,980038.00,3540.054986020,N,13947.463704886,E,4,16,0.7,3.292,M,36.209,M,1.0,*40
352856.200026,$GPGGA,980038.20,3540.054986488,N,13947.463705801,E,4,16,0.7,3.289,M,36.209,M,0.2,*40
352856.400026,$GPGGA,980038.40,3540.054986648,N,13947.463705741,E,4,16,0.7,3.288,M,36.209,M,0.4,*40
352856.600026,$GPGGA,980038.60,3540.054985730,N,13947.463705828,E,4,16,0.7,3.290,M,36.209,M,0.6,*40
352856.800026,$GPGGA,980038.80,3540.054986737,N,13947.463705635,E,4,16,0.7,3.292,M,36.209,M,0.8,*40
352857.000026,$GPGGA,980039.00,3540.054986660,N,13947.463705984,E,4,16,0.7,3.293,M,36.209,M,1.0,*40
352857.200026,$GPGGA,980039.20,3540.054985850,N,13947.463705472,E,4,16,0.7,3.292,M,36.209,M,0.2,*40
352857.400026,$GPGGA,980039.40,3540.054985236,N,13947.463704893,E,4,16,0.7,3.289,M,36.209,M,0.4,*40
352857.600026,$GPGGA,980039.60,3540.054985213,N,13947.463705330,E,4,16,0.7,3.293,M,36.209,M,0.6,*40
352857.800026,$GPGGA,980039.80,3540.054985237,N,13947.463704395,E,4,16,0.7,3.294,M,36.209,M,0.8,*40
352858.000026,$GPGGA,980040.00,3540.054984473,N,13947.463704100,E,4,16,0.7,3.294,M,36.209,M,1.0,*40
352858.200026,$GPGGA,980040.20,3540.054985716,N,13947.463705431,E,4,16,0.7,3.290,M,36.209,M,0.2,*40
352858.400026,$GPGGA,980040.40,3540.054986437,N,13947.463705918,E,4,16,0.7,3.289,M,36.209,M,0.4,*40
352858.600026,$GPGGA,980040.60,3540.054986266,N,13947.463705125,E,4,16,0.7,3.290,M,36.209,M,0.6,*40
352858.800026,$GPGGA,980040.80,3540.054986453,N,13947.463705090,E,4,16,0.7,3.292,M,36.209,M,0.8,*40
352859.000026,$GPGGA,980041.00,3540.054985768,N,13947.463704837,E,4,17,0.7,3.293,M,36.209,M,1.0,*40
352859.200026,$GPGGA,980041.20,3540.054986122,N,13947.463705928,E,4,17,0.7,3.289,M,36.209,M,0.2,*40
352859.400026,$GPGGA,980041.40,3540.054985670,N,13947.463705225,E,4,17,0.7,3.289,M,36.209,M,0.4,*40
352859.600026,$GPGGA,980041.60,3540.054985674,N,13947.463705993,E,4,17,0.7,3.291,M,36.209,M,0.6,*40
352859.800026,$GPGGA,980041.80,3540.054985308,N,13947.463705652,E,4,17,0.7,3.292,M,36.209,M,0.8,*40
352860.000025,$GPGGA,980042.00,3540.054984834,N,13947.463705686,E,4,17,0.7,3.292,M,36.209,M,1.0,*40
352860.200025,$GPGGA,980042.20,3540.054985635,N,13947.463706356,E,4,17,0.7,3.291,M,36.209,M,0.2,*40
352860.400025,$GPGGA,980042.40,3540.054985967,N,13947.463706179,E,4,17,0.7,3.291,M,36.209,M,0.4,*40
352860.600025,$GPGGA,980042.60,3540.054986019,N,13947.463705746,E,4,17,0.7,3.294,M,36.209,M,0.6,*40
352860.800025,$GPGGA,980042.80,3540.054986005,N,13947.463705687,E,4,17,0.7,3.294,M,36.209,M,0.8,*40
352861.000025,$GPGGA,980043.00,3540.054985969,N,13947.463704941,E,4,17,0.7,3.296,M,36.209,M,1.0,*40
352861.200025,$GPGGA,980043.20,3540.054985431,N,13947.463706091,E,4,17,0.7,3.287,M,36.209,M,0.2,*40
352861.400025,$GPGGA,980043.40,3540.054984526,N,13947.463704879,E,4,17,0.7,3.289,M,36.209,M,0.4,*40
352861.600025,$GPGGA,980043.60,3540.054984027,N,13947.463705300,E,4,17,0.7,3.290,M,36.209,M,0.6,*40
352861.800025,$GPGGA,980043.80,3540.054984110,N,13947.463704782,E,4,17,0.7,3.291,M,36.209,M,0.8,*40
352862.000025,$GPGGA,980044.00,3540.054984020,N,13947.463704773,E,4,17,0.7,3.291,M,36.209,M,1.0,*40
352862.200025,$GPGGA,980044.20,3540.054985808,N,13947.463704686,E,4,17,0.7,3.292,M,36.209,M,0.2,*40
352862.400025,$GPGGA,980044.40,3540.054985108,N,13947.463704868,E,4,17,0.7,3.290,M,36.209,M,0.4,*40
352862.600025,$GPGGA,980044.60,3540.054984709,N,13947.463704488,E,4,17,0.7,3.293,M,36.209,M,0.6,*40
352862.800025,$GPGGA,980044.80,3540.054984339,N,13947.463704376,E,4,17,0.7,3.294,M,36.209,M,0.8,*40
352863.000025,$GPGGA,980045.00,3540.054984533,N,13947.463704059,E,4,17,0.7,3.294,M,36.209,M,1.0,*40
352863.200025,$GPGGA,980045.20,3540.054985941,N,13947.463705812,E,4,17,0.7,3.289,M,36.209,M,0.2,*40
352863.400025,$GPGGA,980045.40,3540.054985509,N,13947.463705034,E,4,17,0.7,3.289,M,36.209,M,0.4,*40
352863.600025,$GPGGA,980045.60,3540.054985330,N,13947.463704907,E,4,17,0.7,3.292,M,36.209,M,0.6,*40
352863.800025,$GPGGA,980045.80,3540.054984473,N,13947.463705019,E,4,17,0.7,3.291,M,36.209,M,0.8,*40
352864.000025,$GPGGA,980046.00,3540.054984673,N,13947.463704235,E,4,17,0.7,3.294,M,36.209,M,1.0,*40
352864.200024,$GPGGA,980046.20,3540.054985587,N,13947.463704315,E,4,17,0.7,3.287,M,36.209,M,0.2,*40
352864.400024,$GPGGA,980046.40,3540.054985754,N,13947.463704535,E,4,17,0.7,3.289,M,36.209,M,0.4,*40
352864.600024,$GPGGA,980046.60,3540.054985927,N,13947.463705061,E,4,17,0.7,3.289,M,36.209,M,0.6,*40
352864.800024,$GPGGA,980046.80,3540.054985943,N,13947.463704533,E,4,17,0.7,3.289,M,36.209,M,0.8,*40
352865.000024,$GPGGA,980047.00,3540.054985499,N,13947.463704475,E,4,17,0.7,3.290,M,36.209,M,1.0,*40
352865.200024,$GPGGA,980047.20,3540.054985823,N,13947.463706386,E,4,17,0.7,3.287,M,36.209,M,0.2,*40
352865.400024,$GPGGA,980047.40,3540.054986287,N,13947.463705570,E,4,17,0.7,3.289,M,36.209,M,0.4,*40
352865.600024,$GPGGA,980047.60,3540.054985832,N,13947.463705948,E,4,17,0.7,3.291,M,36.209,M,0.6,*40
352865.800024,$GPGGA,980047.80,3540.054985735,N,13947.463705623,E,4,17,0.7,3.291,M,36.209,M,0.8,*40
352866.000024,$GPGGA,980048.00,3540.054985092,N,13947.463705349,E,4,17,0.7,3.291,M,36.209,M,1.0,*40
352866.200024,$GPGGA,980048.20,3540.054985375,N,13947.463705562,E,4,17,0.7,3.287,M,36.209,M,0.2,*40
352866.400024,$GPGGA,980048.40,3540.054984993,N,13947.463704542,E,4,17,0.7,3.289,M,36.209,M,0.4,*40
352866.600024,$GPGGA,980048.60,3540.054985432,N,13947.463705182,E,4,17,0.7,3.290,M,36.209,M,0.6,*40
352866.800024,$GPGGA,980048.80,3540.054985195,N,13947.463705017,E,4,17,0.7,3.290,M,36.209,M,0.8,*40
352867.000024,$GPGGA,980049.00,3540.054985602,N,13947.463705084,E,4,17,0.7,3.290,M,36.209,M,1.0,*40
352867.200024,$GPGGA,980049.20,3540.054985367,N,13947.463705695,E,4,17,0.7,3.290,M,36.209,M,0.2,*40
352867.400024,$GPGGA,980049.40,3540.054984942,N,13947.463704978,E,4,17,0.7,3.290,M,36.209,M,0.4,*40
352867.600024,$GPGGA,980049.60,3540.054985367,N,13947.463704881,E,4,17,0.7,3.292,M,36.209,M,0.6,*40
352867.800024,$GPGGA,980049.80,3540.054985091,N,13947.463705164,E,4,17,0.7,3.291,M,36.209,M,0.8,*40
352868.000024,$GPGGA,980050.00,3540.054984747,N,13947.463704427,E,4,17,0.7,3.291,M,36.209,M,1.0,*40
352868.200023,$GPGGA,980050.20,3540.054985384,N,13947.463706146,E,4,17,0.7,3.287,M,36.209,M,0.2,*40
352868.400023,$GPGGA,980050.40,3540.054985130,N,13947.463706021,E,4,17,0.7,3.290,M,36.209,M,0.4,*40
352868.600023,$GPGGA,980050.60,3540.054985590,N,13947.463705820,E,4,17,0.7,3.289,M,36.209,M,0.6,*40
352868.800023,$GPGGA,980050.80,3540.054984843,N,13947.463705807,E,4,17,0.7,3.291,M,36.209,M,0.8,*40
352869.000023,$GPGGA,980051.00,3540.054984769,N,13947.463705075,E,4,17,0.7,3.296,M,36.209,M,1.0,*40
352869.200023,$GPGGA,980051.20,3540.054985147,N,13947.463706103,E,4,17,0.7,3.288,M,36.209,M,0.2,*40
352869.400023,$GPGGA,980051.40,3540.054985370,N,13947.463706246,E,4,17,0.7,3.287,M,36.209,M,0.4,*40
352869.600023,$GPGGA,980051.60,3540.054984808,N,13947.463705111,E,4,17,0.7,3.289,M,36.209,M,0.6,*40
352869.800023,$GPGGA,980051.80,3540.054984985,N,13947.463705676,E,4,17,0.7,3.289,M,36.209,M,0.8,*40
352870.000023,$GPGGA,980052.00,3540.054985650,N,13947.463705985,E,4,17,0.7,3.289,M,36.209,M,1.0,*40
352870.200023,$GPGGA,980052.20,3540.054984961,N,13947.463705965,E,4,17,0.7,3.289,M,36.209,M,0.2,*40
352870.400023,$GPGGA,980052.40,3540.054984969,N,13947.463706187,E,4,17,0.7,3.290,M,36.209,M,0.4,*40
352870.600023,$GPGGA,980052.60,3540.054985420,N,13947.463705739,E,4,17,0.7,3.291,M,36.209,M,0.6,*40
352870.800023,$GPGGA,980052.80,3540.054985155,N,13947.463705337,E,4,17,0.7,3.290,M,36.209,M,0.8,*40
352871.000023,$GPGGA,980053.00,3540.054984617,N,13947.463705775,E,4,17,0.7,3.292,M,36.209,M,1.0,*40
352871.200023,$GPGGA,980053.20,3540.054985594,N,13947.463706231,E,4,17,0.7,3.285,M,36.209,M,0.2,*40
352871.400023,$GPGGA,980053.40,3540.054985897,N,13947.463705799,E,4,17,0.7,3.286,M,36.209,M,0.4,*40
352871.600023,$GPGGA,980053.60,3540.054985491,N,13947.463705765,E,4,17,0.7,3.286,M,36.209,M,0.6,*40
352871.800023,$GPGGA,980053.80,3540.054985621,N,13947.463705792,E,4,17,0.7,3.287,M,36.209,M,0.8,*40
352872.000023,$GPGGA,980054.00,3540.054985281,N,13947.463704722,E,4,17,0.7,3.290,M,36.209,M,1.0,*40
352872.200022,$GPGGA,980054.20,3540.054985516,N,13947.463706657,E,4,17,0.7,3.288,M,36.209,M,0.2,*40
352872.400022,$GPGGA,980054.40,3540.054985761,N,13947.463705851,E,4,17,0.7,3.289,M,36.209,M,0.4,*40
352872.600022,$GPGGA,980054.60,3540.054985918,N,13947.463707087,E,4,17,0.7,3.292,M,36.209,M,0.6,*40
352872.800022,$GPGGA,980054.80,3540.054985570,N,13947.463706126,E,4,17,0.7,3.293,M,36.209,M,0.8,*40
352873.000022,$GPGGA,980055.00,3540.054985914,N,13947.463705378,E,4,17,0.7,3.293,M,36.209,M,1.0,*40
352873.200022,$GPGGA,980055.20,3540.054986082,N,13947.463706520,E,4,17,0.7,3.289,M,36.209,M,0.2,*40
352873.400022,$GPGGA,980055.40,3540.054985897,N,13947.463706874,E,4,17,0.7,3.289,M,36.209,M,0.4,*40
352873.600022,$GPGGA,980055.60,3540.054985664,N,13947.463706903,E,4,17,0.7,3.289,M,36.209,M,0.6,*40
352873.800022,$GPGGA,980055.80,3540.054985519,N,13947.463705808,E,4,17,0.7,3.291,M,36.209,M,0.8,*40
352874.000022,$GPGGA,980056.00,3540.054986294,N,13947.463706269,E,4,17,0.7,3.291,M,36.209,M,1.0,*40
352874.200022,$GPGGA,980056.20,3540.054986038,N,13947.463706379,E,4,17,0.7,3.289,M,36.209,M,0.2,*40
352874.400022,$GPGGA,980056.40,3540.054985827,N,13947.463706855,E,4,17,0.7,3.289,M,36.209,M,0.4,*40
352874.600022,$GPGGA,980056.60,3540.054985978,N,13947.463706655,E,4,17,0.7,3.289,M,36.209,M,0.6,*40
352874.800022,$GPGGA,980056.80,3540.054985916,N,13947.463706502,E,4,17,0.7,3.291,M,36.209,M,0.8,*40
352875.000022,$GPGGA,980057.00,3540.054985323,N,13947.463706159,E,4,17,0.7,3.292,M,36.209,M,1.0,*40
352875.200022,$GPGGA,980057.20,3540.054985909,N,13947.463706825,E,4,17,0.7,3.289,M,36.209,M,0.2,*40
352875.400022,$GPGGA,980057.40,3540.054986433,N,13947.463706629,E,4,17,0.7,3.289,M,36.209,M,0.4,*40
352875.600022,$GPGGA,980057.60,3540.054985963,N,13947.463705301,E,4,17,0.7,3.290,M,36.209,M,0.6,*40
352875.800022,$GPGGA,980057.80,3540.054986103,N,13947.463706006,E,4,17,0.7,3.292,M,36.209,M,0.8,*40
352876.000022,$GPGGA,980058.00,3540.054985695,N,13947.463705894,E,4,17,0.7,3.292,M,36.209,M,1.0,*40
352876.200021,$GPGGA,980058.20,3540.054985742,N,13947.463706674,E,4,17,0.7,3.288,M,36.209,M,0.2,*40
352876.400021,$GPGGA,980058.40,3540.054985878,N,13947.463705636,E,4,17,0.7,3.290,M,36.209,M,0.4,*40
352876.600021,$GPGGA,980058.60,3540.054986600,N,13947.463705533,E,4,17,0.7,3.291,M,36.209,M,0.6,*40
352876.800021,$GPGGA,980058.80,3540.054986111,N,13947.463705306,E,4,17,0.7,3.291,M,36.209,M,0.8,*40
352877.000021,$GPGGA,980059.00,3540.054985655,N,13947.463704290,E,4,17,0.7,3.291,M,36.209,M,1.0,*40
352877.200021,$GPGGA,980059.20,3540.054987456,N,13947.463706721,E,4,17,0.7,3.288,M,36.209,M,0.2,*40
352877.400021,$GPGGA,980059.40,3540.054986475,N,13947.463706904,E,4,17,0.7,3.289,M,36.209,M,0.4,*40
352877.600021,$GPGGA,980059.60,3540.054986983,N,13947.463706414,E,4,17,0.7,3.291,M,36.209,M,0.6,*40
352877.800021,$GPGGA,980059.80,3540.054986978,N,13947.463705874,E,4,17,0.7,3.289,M,36.209,M,0.8,*40
352878.000021,$GPGGA,980100.00,3540.054986608,N,13947.463705109,E,4,17,0.7,3.292,M,36.209,M,1.0,*40
352878.200021,$GPGGA,980100.20,3540.054986639,N,13947.463705633,E,4,17,0.7,3.286,M,36.209,M,0.2,*40
352878.400021,$GPGGA,980100.40,3540.054986894,N,13947.463704999,E,4,17,0.7,3.288,M,36.209,M,0.4,*40
352878.600021,$GPGGA,980100.60,3540.054987112,N,13947.463705683,E,4,17,0.7,3.288,M,36.209,M,0.6,*40
352878.800021,$GPGGA,980100.80,3540.054986709,N,13947.463704377,E,4,17,0.7,3.287,M,36.209,M,0.8,*40
352879.000021,$GPGGA,980101.00,3540.054987114,N,13947.463704933,E,4,17,0.7,3.289,M,36.209,M,1.0,*40
352879.200021,$GPGGA,980101.20,3540.054986510,N,13947.463706026,E,4,17,0.7,3.287,M,36.209,M,0.2,*40
352879.400021,$GPGGA,980101.40,3540.054986254,N,13947.463705756,E,4,17,0.7,3.286,M,36.209,M,0.4,*40
352879.600021,$GPGGA,980101.60,3540.054986298,N,13947.463705123,E,4,17,0.7,3.287,M,36.209,M,0.6,*40
352879.800021,$GPGGA,980101.80,3540.054986743,N,13947.463705083,E,4,17,0.7,3.287,M,36.209,M,0.8,*40
352880.000021,$GPGGA,980102.00,3540.054986762,N,13947.463704732,E,4,17,0.7,3.288,M,36.209,M,1.0,*40
352880.200020,$GPGGA,980102.20,3540.054987718,N,13947.463707363,E,4,17,0.7,3.289,M,36.209,M,0.2,*40
352880.400020,$GPGGA,980102.40,3540.054986682,N,13947.463706132,E,4,17,0.7,3.291,M,36.209,M,0.4,*40
352880.600020,$GPGGA,980102.60,3540.054987657,N,13947.463706497,E,4,17,0.7,3.290,M,36.209,M,0.6,*40
352880.800020,$GPGGA,980102.80,3540.054987226,N,13947.463706170,E,4,17,0.7,3.292,M,36.209,M,0.8,*40
352881.000020,$GPGGA,980103.00,3540.054986999,N,13947.463705729,E,4,17,0.7,3.292,M,36.209,M,1.0,*40
352881.200020,$GPGGA,980103.20,3540.054987592,N,13947.463706314,E,4,17,0.7,3.290,M,36.209,M,0.2,*40
352881.400020,$GPGGA,980103.40,3540.054987645,N,13947.463706126,E,4,17,0.7,3.291,M,36.209,M,0.4,*40
352881.600020,$GPGGA,980103.60,3540.054987430,N,13947.463705692,E,4,17,0.7,3.293,M,36.209,M,0.6,*40
352881.800020,$GPGGA,980103.80,3540.054987708,N,13947.463705796,E,4,17,0.7,3.291,M,36.209,M,0.8,*40
352882.000020,$GPGGA,980104.00,3540.054987826,N,13947.463704778,E,4,17,0.7,3.293,M,36.209,M,1.0,*40
352882.200020,$GPGGA,980104.20,3540.054987969,N,13947.463706571,E,4,17,0.7,3.287,M,36.209,M,0.2,*40
352882.400020,$GPGGA,980104.40,3540.054987776,N,13947.463706949,E,4,17,0.7,3.288,M,36.209,M,0.4,*40
352882.600020,$GPGGA,980104.60,3540.054987963,N,13947.463706177,E,4,17,0.7,3.289,M,36.209,M,0.6,*40
352882.800020,$GPGGA,980104.80,3540.054987934,N,13947.463705851,E,4,17,0.7,3.290,M,36.209,M,0.8,*40
352883.000020,$GPGGA,980105.00,3540.054987968,N,13947.463705398,E,4,17,0.7,3.291,M,36.209,M,1.0,*40
352883.200020,$GPGGA,980105.20,3540.054987954,N,13947.463705715,E,4,17,0.7,3.286,M,36.209,M,0.2,*40
352883.400020,$GPGGA,980105.40,3540.054987683,N,13947.463705474,E,4,17,0.7,3.289,M,36.209,M,0.4,*40
352883.600020,$GPGGA,980105.60,3540.054987638,N,13947.463705002,E,4,17,0.7,3.289,M,36.209,M,0.6,*40
352883.800020,$GPGGA,980105.80,3540.054986876,N,13947.463704984,E,4,17,0.7,3.289,M,36.209,M,0.8,*40
352884.000020,$GPGGA,980106.00,3540.054987847,N,13947.463704968,E,4,17,0.7,3.291,M,36.209,M,1.0,*40
352884.200020,$GPGGA,980106.20,3540.054986920,N,13947.463706684,E,4,17,0.7,3.288,M,36.209,M,0.2,*40
352884.400019,$GPGGA,980106.40,3540.054987400,N,13947.463705724,E,4,17,0.7,3.289,M,36.209,M,0.4,*40
352884.600019,$GPGGA,980106.60,3540.054986909,N,13947.463705336,E,4,17,0.7,3.289,M,36.209,M,0.6,*40
352884.800019,$GPGGA,980106.80,3540.054987013,N,13947.463706291,E,4,17,0.7,3.290,M,36.209,M,0.8,*40
352885.000019,$GPGGA,980107.00,3540.054987485,N,13947.463705800,E,4,17,0.7,3.290,M,36.209,M,1.0,*40
352885.200019,$GPGGA,980107.20,3540.054987934,N,13947.463706044,E,4,17,0.7,3.290,M,36.209,M,0.2,*40
352885.400019,$GPGGA,980107.40,3540.054987269,N,13947.463705254,E,4,17,0.7,3.291,M,36.209,M,0.4,*40
352885.600019,$GPGGA,980107.60,3540.054987752,N,13947.463705738,E,4,17,0.7,3.292,M,36.209,M,0.6,*40
352885.800019,$GPGGA,980107.80,3540.054987192,N,13947.463705410,E,4,17,0.7,3.291,M,36.209,M,0.8,*40
352886.000019,$GPGGA,980108.00,3540.054987781,N,13947.463705022,E,4,17,0.7,3.294,M,36.209,M,1.0,*40
352886.200019,$GPGGA,980108.20,3540.054987946,N,13947.463705817,E,4,17,0.7,3.288,M,36.209,M,0.2,*40
352886.400019,$GPGGA,980108.40,3540.054988578,N,13947.463705252,E,4,17,0.7,3.289,M,36.209,M,0.4,*40
352886.600019,$GPGGA,980108.60,3540.054988767,N,13947.463704789,E,4,17,0.7,3.289,M,36.209,M,0.6,*40
352886.800019,$GPGGA,980108.80,3540.054988675,N,13947.463705088,E,4,17,0.7,3.289,M,36.209,M,0.8,*40
352887.000019,$GPGGA,980109.00,3540.054988540,N,13947.463704742,E,4,17,0.7,3.288,M,36.209,M,1.0,*40
352887.200019,$GPGGA,980109.20,3540.054988625,N,13947.463706692,E,4,17,0.7,3.290,M,36.209,M,0.2,*40
352887.400019,$GPGGA,980109.40,3540.054989426,N,13947.463706496,E,4,17,0.7,3.291,M,36.209,M,0.4,*40
352887.600019,$GPGGA,980109.60,3540.054987531,N,13947.463705493,E,4,17,0.7,3.290,M,36.209,M,0.6,*40
352887.800019,$GPGGA,980109.80,3540.054988361,N,13947.463705265,E,4,17,0.7,3.290,M,36.209,M,0.8,*40
352888.000019,$GPGGA,980110.00,3540.054988727,N,13947.463704740,E,4,17,0.7,3.292,M,36.209,M,1.0,*40
352888.200019,$GPGGA,980110.20,3540.054987980,N,13947.463706069,E,4,17,0.7,3.288,M,36.209,M,0.2,*40
352888.400018,$GPGGA,980110.40,3540.054988001,N,13947.463705611,E,4,17,0.7,3.287,M,36.209,M,0.4,*40
352888.600018,$GPGGA,980110.60,3540.054988123,N,13947.463705480,E,4,17,0.7,3.288,M,36.209,M,0.6,*40
352888.800018,$GPGGA,980110.80,3540.054988269,N,13947.463705653,E,4,17,0.7,3.287,M,36.209,M,0.8,*40
352889.000018,$GPGGA,980111.00,3540.054988007,N,13947.463704699,E,4,17,0.7,3.290,M,36.209,M,1.0,*40
352889.200018,$GPGGA,980111.20,3540.054988890,N,13947.463705930,E,4,17,0.7,3.291,M,36.209,M,0.2,*40
352889.400018,$GPGGA,980111.40,3540.054988867,N,13947.463705782,E,4,17,0.7,3.291,M,36.209,M,0.4,*40
352889.600018,$GPGGA,980111.60,3540.054988599,N,13947.463705250,E,4,17,0.7,3.290,M,36.209,M,0.6,*40
352889.800018,$GPGGA,980111.80,3540.054989505,N,13947.463704987,E,4,17,0.7,3.293,M,36.209,M,0.8,*40
352890.000018,$GPGGA,980112.00,3540.054989377,N,13947.463704579,E,4,17,0.7,3.295,M,36.209,M,1.0,*40
352890.200018,$GPGGA,980112.20,3540.054988955,N,13947.463705758,E,4,17,0.7,3.288,M,36.209,M,0.2,*40
352890.400018,$GPGGA,980112.40,3540.054988337,N,13947.463705202,E,4,17,0.7,3.289,M,36.209,M,0.4,*40
352890.600018,$GPGGA,980112.60,3540.054989217,N,13947.463705459,E,4,17,0.7,3.290,M,36.209,M,0.6,*40
352890.800018,$GPGGA,980112.80,3540.054989139,N,13947.463704789,E,4,17,0.7,3.292,M,36.209,M,0.8,*40
352891.000018,$GPGGA,980113.00,3540.054988570,N,13947.463704793,E,4,17,0.7,3.292,M,36.209,M,1.0,*40
352891.200018,$GPGGA,980113.20,3540.054988989,N,13947.463706010,E,4,17,0.7,3.286,M,36.209,M,0.2,*40
352891.400018,$GPGGA,980113.40,3540.054987936,N,13947.463705726,E,4,17,0.7,3.290,M,36.209,M,0.4,*40
352891.600018,$GPGGA,980113.60,3540.054988750,N,13947.463705574,E,4,17,0.7,3.291,M,36.209,M,0.6,*40
352891.800018,$GPGGA,980113.80,3540.054988056,N,13947.463704636,E,4,17,0.7,3.290,M,36.209,M,0.8,*40
352892.000018,$GPGGA,980114.00,3540.054988064,N,13947.463704708,E,4,17,0.7,3.290,M,36.209,M,1.0,*40
352892.200018,$GPGGA,980114.20,3540.054989052,N,13947.463705612,E,4,17,0.7,3.290,M,36.209,M,0.2,*40
352892.400017,$GPGGA,980114.40,3540.054989135,N,13947.463705323,E,4,17,0.7,3.290,M,36.209,M,0.4,*40
352892.600017,$GPGGA,980114.60,3540.054988615,N,13947.463704271,E,4,17,0.7,3.290,M,36.209,M,0.6,*40
352892.800017,$GPGGA,980114.80,3540.054988748,N,13947.463704204,E,4,17,0.7,3.291,M,36.209,M,0.8,*40
352893.000017,$GPGGA,980115.00,3540.054988621,N,13947.463703955,E,4,17,0.7,3.291,M,36.209,M,1.0,*40
352893.200017,$GPGGA,980115.20,3540.054988074,N,13947.463704827,E,4,17,0.7,3.290,M,36.209,M,0.2,*40
352893.400017,$GPGGA,980115.40,3540.054987829,N,13947.463704553,E,4,17,0.7,3.289,M,36.209,M,0.4,*40
352893.600017,$GPGGA,980115.60,3540.054988313,N,13947.463704304,E,4,17,0.7,3.291,M,36.209,M,0.6,*40
352893.800017,$GPGGA,980115.80,3540.054987880,N,13947.463703490,E,4,17,0.7,3.293,M,36.209,M,0.8,*40
352894.000017,$GPGGA,980116.00,3540.054988019,N,13947.463703337,E,4,17,0.7,3.294,M,36.209,M,1.0,*40
352894.200017,$GPGGA,980116.20,3540.054987484,N,13947.463706044,E,4,17,0.7,3.289,M,36.209,M,0.2,*40
352894.400017,$GPGGA,980116.40,3540.054987996,N,13947.463705230,E,4,17,0.7,3.289,M,36.209,M,0.4,*40
352894.600017,$GPGGA,980116.60,3540.054988511,N,13947.463705594,E,4,17,0.7,3.289,M,36.209,M,0.6,*40
352894.800017,$GPGGA,980116.80,3540.054987820,N,13947.463704863,E,4,17,0.7,3.290,M,36.209,M,0.8,*40
352895.000017,$GPGGA,980117.00,3540.054988190,N,13947.463703959,E,4,17,0.7,3.292,M,36.209,M,1.0,*40
352895.200017,$GPGGA,980117.20,3540.054988377,N,13947.463705319,E,4,17,0.7,3.288,M,36.209,M,0.2,*40
352895.400017,$GPGGA,980117.40,3540.054988701,N,13947.463705508,E,4,17,0.7,3.288,M,36.209,M,0.4,*40
352895.600017,$GPGGA,980117.60,3540.054988784,N,13947.463705311,E,4,17,0.7,3.290,M,36.209,M,0.6,*40
352895.800017,$GPGGA,980117.80,3540.054989014,N,13947.463704646,E,4,17,0.7,3.288,M,36.209,M,0.8,*40
352896.000017,$GPGGA,980118.00,3540.054988170,N,13947.463704160,E,4,17,0.7,3.291,M,36.209,M,1.0,*40
352896.200017,$GPGGA,980118.20,3540.054988501,N,13947.463705507,E,4,17,0.7,3.286,M,36.209,M,0.2,*40
352896.400016,$GPGGA,980118.40,3540.054988484,N,13947.463704462,E,4,17,0.7,3.287,M,36.209,M,0.4,*40
352896.600016,$GPGGA,980118.60,3540.054988493,N,13947.463704040,E,4,17,0.7,3.287,M,36.209,M,0.6,*40
352896.800016,$GPGGA,980118.80,3540.054988119,N,13947.463704228,E,4,17,0.7,3.287,M,36.209,M,0.8,*40
352897.000016,$GPGGA,980119.00,3540.054988232,N,13947.463703742,E,4,17,0.7,3.290,M,36.209,M,1.0,*40
352897.200016,$GPGGA,980119.20,3540.054988224,N,13947.463704902,E,4,17,0.7,3.287,M,36.209,M,0.2,*40
352897.400016,$GPGGA,980119.40,3540.054988508,N,13947.463704465,E,4,17,0.7,3.288,M,36.209,M,0.4,*40
352897.600016,$GPGGA,980119.60,3540.054988634,N,13947.463704001,E,4,17,0.7,3.289,M,36.209,M,0.6,*40
352897.800016,$GPGGA,980119.80,3540.054988312,N,13947.463703878,E,4,17,0.7,3.291,M,36.209,M,0.8,*40
352898.000016,$GPGGA,980120.00,3540.054988124,N,13947.463703347,E,4,17,0.7,3.290,M,36.209,M,1.0,*40
352898.200016,$GPGGA,980120.20,3540.054987760,N,13947.463706787,E,4,17,0.7,3.286,M,36.209,M,0.2,*40
352898.400016,$GPGGA,980120.40,3540.054988476,N,13947.463707020,E,4,17,0.7,3.286,M,36.209,M,0.4,*40
352898.600016,$GPGGA,980120.60,3540.054988298,N,13947.463705900,E,4,17,0.7,3.290,M,36.209,M,0.6,*40
352898.800016,$GPGGA,980120.80,3540.054989394,N,13947.463706366,E,4,17,0.7,3.288,M,36.209,M,0.8,*40
352899.000016,$GPGGA,980121.00,3540.054989068,N,13947.463705541,E,4,17,0.7,3.290,M,36.209,M,1.0,*40
352899.200016,$GPGGA,980121.20,3540.054987749,N,13947.463705760,E,4,17,0.7,3.288,M,36.209,M,0.2,*40
352899.400016,$GPGGA,980121.40,3540.054988403,N,13947.463705695,E,4,17,0.7,3.287,M,36.209,M,0.4,*40
352899.600016,$GPGGA,980121.60,3540.054987373,N,13947.463705285,E,4,17,0.7,3.288,M,36.209,M,0.6,*40
352899.800016,$GPGGA,980121.80,3540.054987440,N,13947.463705379,E,4,17,0.7,3.288,M,36.209,M,0.8,*40
352900.000016,$GPGGA,980122.00,3540.054987923,N,13947.463705578,E,4,17,0.7,3.289,M,36.209,M,1.0,*40
352900.200016,$GPGGA,980122.20,3540.054988084,N,13947.463706362,E,4,17,0.7,3.284,M,36.209,M,0.2,*40
352900.400016,$GPGGA,980122.40,3540.054987830,N,13947.463706058,E,4,17,0.7,3.286,M,36.209,M,0.4,*40
352900.600015,$GPGGA,980122.60,3540.054987974,N,13947.463704997,E,4,17,0.7,3.288,M,36.209,M,0.6,*40
352900.800015,$GPGGA,980122.80,3540.054987554,N,13947.463704870,E,4,17,0.7,3.288,M,36.209,M,0.8,*40
352901.000015,$GPGGA,980123.00,3540.054987620,N,13947.463704471,E,4,17,0.7,3.288,M,36.209,M,1.0,*40
352901.200015,$GPGGA,980123.20,3540.054987867,N,13947.463706096,E,4,17,0.7,3.286,M,36.209,M,0.2,*40
352901.400015,$GPGGA,980123.40,3540.054988150,N,13947.463705900,E,4,17,0.7,3.288,M,36.209,M,0.4,*40
352901.600015,$GPGGA,980123.60,3540.054988283,N,13947.463705906,E,4,17,0.7,3.286,M,36.209,M,0.6,*40
352901.800015,$GPGGA,980123.80,3540.054988730,N,13947.463705410,E,4,17,0.7,3.287,M,36.209,M,0.8,*40
352902.000015,$GPGGA,980124.00,3540.054988497,N,13947.463705201,E,4,17,0.7,3.289,M,36.209,M,1.0,*40
352902.200015,$GPGGA,980124.20,3540.054987588,N,13947.463706235,E,4,17,0.7,3.287,M,36.209,M,0.2,*40
352902.400015,$GPGGA,980124.40,3540.054987927,N,13947.463705542,E,4,17,0.7,3.286,M,36.209,M,0.4,*40
352902.600015,$GPGGA,980124.60,3540.054987481,N,13947.463705257,E,4,17,0.7,3.288,M,36.209,M,0.6,*40
352902.800015,$GPGGA,980124.80,3540.054987518,N,13947.463704889,E,4,17,0.7,3.291,M,36.209,M,0.8,*40
352903.000015,$GPGGA,980125.00,3540.054987132,N,13947.463704753,E,4,17,0.7,3.289,M,36.209,M,1.0,*40
352903.200015,$GPGGA,980125.20,3540.054988060,N,13947.463706271,E,4,17,0.7,3.287,M,36.209,M,0.2,*40
352903.400015,$GPGGA,980125.40,3540.054988494,N,13947.463705930,E,4,17,0.7,3.289,M,36.209,M,0.4,*40
352903.600015,$GPGGA,980125.60,3540.054987741,N,13947.463704756,E,4,17,0.7,3.287,M,36.209,M,0.6,*40
352903.800015,$GPGGA,980125.80,3540.054987757,N,13947.463704371,E,4,17,0.7,3.290,M,36.209,M,0.8,*40
352904.000015,$GPGGA,980126.00,3540.054987341,N,13947.463704146,E,4,17,0.7,3.288,M,36.209,M,1.0,*40
352904.200015,$GPGGA,980126.20,3540.054988198,N,13947.463706570,E,4,17,0.7,3.285,M,36.209,M,0.2,*40
352904.400015,$GPGGA,980126.40,3540.054987338,N,13947.463706216,E,4,17,0.7,3.288,M,36.209,M,0.4,*40
352904.600014,$GPGGA,980126.60,3540.054987199,N,13947.463706816,E,4,17,0.7,3.288,M,36.209,M,0.6,*40
352904.800014,$GPGGA,980126.80,3540.054987854,N,13947.463706337,E,4,17,0.7,3.288,M,36.209,M,0.8,*40
352905.000014,$GPGGA,980127.00,3540.054987530,N,13947.463705629,E,4,17,0.7,3.288,M,36.209,M,1.0,*40
352905.200014,$GPGGA,980127.20,3540.054986896,N,13947.463705935,E,4,17,0.7,3.286,M,36.209,M,0.2,*40
352905.400014,$GPGGA,980127.40,3540.054986982,N,13947.463704614,E,4,17,0.7,3.285,M,36.209,M,0.4,*40
352905.600014,$GPGGA,980127.60,3540.054986811,N,13947.463704638,E,4,17,0.7,3.284,M,36.209,M,0.6,*40
352905.800014,$GPGGA,980127.80,3540.054986515,N,13947.463703839,E,4,17,0.7,3.286,M,36.209,M,0.8,*40
352906.000014,$GPGGA,980128.00,3540.054986099,N,13947.463703689,E,4,17,0.7,3.288,M,36.209,M,1.0,*40
352906.200014,$GPGGA,980128.20,3540.054987762,N,13947.463706131,E,4,17,0.7,3.285,M,36.209,M,0.2,*40
352906.400014,$GPGGA,980128.40,3540.054986642,N,13947.463705947,E,4,17,0.7,3.285,M,36.209,M,0.4,*40
352906.600014,$GPGGA,980128.60,3540.054987131,N,13947.463705743,E,4,17,0.7,3.284,M,36.209,M,0.6,*40
352906.800014,$GPGGA,980128.80,3540.054987328,N,13947.463705309,E,4,17,0.7,3.287,M,36.209,M,0.8,*40
352907.000014,$GPGGA,980129.00,3540.054987013,N,13947.463705019,E,4,17,0.7,3.290,M,36.209,M,1.0,*40
352907.200014,$GPGGA,980129.20,3540.054987428,N,13947.463706420,E,4,17,0.7,3.286,M,36.209,M,0.2,*40
352907.400014,$GPGGA,980129.40,3540.054987064,N,13947.463705926,E,4,17,0.7,3.287,M,36.209,M,0.4,*40
352907.600014,$GPGGA,980129.60,3540.054986555,N,13947.463705665,E,4,17,0.7,3.287,M,36.209,M,0.6,*40
352907.800014,$GPGGA,980129.80,3540.054986131,N,13947.463705382,E,4,17,0.7,3.291,M,36.209,M,0.8,*40
352908.000014,$GPGGA,980130.00,3540.054986084,N,13947.463705421,E,4,17,0.7,3.288,M,36.209,M,1.0,*40
352908.200014,$GPGGA,980130.20,3540.054987008,N,13947.463707012,E,4,17,0.7,3.284,M,36.209,M,0.2,*40
352908.400014,$GPGGA,980130.40,3540.054987816,N,13947.463706399,E,4,17,0.7,3.286,M,36.209,M,0.4,*40
352908.600013,$GPGGA,980130.60,3540.054987323,N,13947.463706472,E,4,17,0.7,3.285,M,36.209,M,0.6,*40
352908.800013,$GPGGA,980130.80,3540.054987168,N,13947.463705907,E,4,17,0.7,3.288,M,36.209,M,0.8,*40
352909.000013,$GPGGA,980131.00,3540.054987456,N,13947.463705074,E,4,17,0.7,3.289,M,36.209,M,1.0,*40
352909.200013,$GPGGA,980131.20,3540.054986824,N,13947.463705790,E,4,17,0.7,3.286,M,36.209,M,0.2,*40
352909.400013,$GPGGA,980131.40,3540.054986918,N,13947.463705960,E,4,17,0.7,3.287,M,36.209,M,0.4,*40
352909.600013,$GPGGA,980131.60,3540.054986458,N,13947.463705528,E,4,17,0.7,3.288,M,36.209,M,0.6,*40
352909.800013,$GPGGA,980131.80,3540.054986706,N,13947.463704896,E,4,17,0.7,3.287,M,36.209,M,0.8,*40
352910.000013,$GPGGA,980132.00,3540.054986757,N,13947.463704668,E,4,17,0.7,3.289,M,36.209,M,1.0,*40
352910.200013,$GPGGA,980132.20,3540.054986763,N,13947.463704324,E,4,17,0.7,3.287,M,36.209,M,0.2,*40
352910.400013,$GPGGA,980132.40,3540.054987143,N,13947.463704938,E,4,17,0.7,3.287,M,36.209,M,0.4,*40
352910.600013,$GPGGA,980132.60,3540.054986874,N,13947.463704742,E,4,17,0.7,3.290,M,36.209,M,0.6,*40
352910.800013,$GPGGA,980132.80,3540.054986316,N,13947.463704222,E,4,17,0.7,3.289,M,36.209,M,0.8,*40
352911.000013,$GPGGA,980133.00,3540.054986389,N,13947.463704121,E,4,17,0.7,3.290,M,36.209,M,1.0,*40
352911.200013,$GPGGA,980133.20,3540.054986824,N,13947.463706291,E,4,17,0.7,3.282,M,36.209,M,0.2,*40
352911.400013,$GPGGA,980133.40,3540.054986926,N,13947.463706064,E,4,17,0.7,3.285,M,36.209,M,0.4,*40
352911.600013,$GPGGA,980133.60,3540.054985809,N,13947.463705845,E,4,17,0.7,3.287,M,36.209,M,0.6,*40
352911.800013,$GPGGA,980133.80,3540.054986723,N,13947.463705631,E,4,17,0.7,3.287,M,36.209,M,0.8,*40
352912.000013,$GPGGA,980134.00,3540.054986439,N,13947.463705489,E,4,17,0.7,3.288,M,36.209,M,1.0,*40
352912.200013,$GPGGA,980134.20,3540.054987449,N,13947.463706079,E,4,17,0.7,3.286,M,36.209,M,0.2,*40
352912.400013,$GPGGA,980134.40,3540.054987850,N,13947.463705162,E,4,17,0.7,3.286,M,36.209,M,0.4,*40
352912.600012,$GPGGA,980134.60,3540.054987651,N,13947.463704876,E,4,17,0.7,3.290,M,36.209,M,0.6,*40
352912.800012,$GPGGA,980134.80,3540.054987053,N,13947.463704800,E,4,17,0.7,3.289,M,36.209,M,0.8,*40
352913.000012,$GPGGA,980135.00,3540.054987260,N,13947.463704162,E,4,17,0.7,3.289,M,36.209,M,1.0,*40
352913.200012,$GPGGA,980135.20,3540.054986571,N,13947.463705211,E,4,17,0.7,3.286,M,36.209,M,0.2,*40
352913.400012,$GPGGA,980135.40,3540.054986851,N,13947.463704705,E,4,17,0.7,3.287,M,36.209,M,0.4,*40
352913.600012,$GPGGA,980135.60,3540.054987470,N,13947.463704302,E,4,17,0.7,3.287,M,36.209,M,0.6,*40
352913.800012,$GPGGA,980135.80,3540.054987361,N,13947.463704436,E,4,17,0.7,3.288,M,36.209,M,0.8,*40
352914.000012,$GPGGA,980136.00,3540.054987512,N,13947.463704616,E,4,17,0.7,3.290,M,36.209,M,1.0,*40
352914.200012,$GPGGA,980136.20,3540.054988199,N,13947.463705330,E,4,17,0.7,3.289,M,36.209,M,0.2,*40
352914.400012,$GPGGA,980136.40,3540.054987720,N,13947.463705374,E,4,17,0.7,3.287,M,36.209,M,0.4,*40
352914.600012,$GPGGA,980136.60,3540.054987654,N,13947.463705087,E,4,17,0.7,3.287,M,36.209,M,0.6,*40
352914.800012,$GPGGA,980136.80,3540.054987416,N,13947.463704424,E,4,17,0.7,3.291,M,36.209,M,0.8,*40
352915.000012,$GPGGA,980137.00,3540.054987796,N,13947.463704690,E,4,17,0.7,3.291,M,36.209,M,1.0,*40
352915.200012,$GPGGA,980137.20,3540.054988831,N,13947.463706583,E,4,17,0.7,3.288,M,36.209,M,0.2,*40
352915.400012,$GPGGA,980137.40,3540.054988709,N,13947.463705499,E,4,17,0.7,3.289,M,36.209,M,0.4,*40
352915.600012,$GPGGA,980137.60,3540.054988427,N,13947.463704944,E,4,17,0.7,3.289,M,36.209,M,0.6,*40
352915.800012,$GPGGA,980137.80,3540.054988757,N,13947.463705890,E,4,17,0.7,3.290,M,36.209,M,0.8,*40
352916.000012,$GPGGA,980138.00,3540.054989016,N,13947.463705159,E,4,17,0.7,3.290,M,36.209,M,1.0,*40
352916.200012,$GPGGA,980138.20,3540.054987727,N,13947.463705045,E,4,17,0.7,3.284,M,36.209,M,0.2,*40
352916.400012,$GPGGA,980138.40,3540.054987632,N,13947.463705348,E,4,17,0.7,3.287,M,36.209,M,0.4,*40
352916.600011,$GPGGA,980138.60,3540.054987376,N,13947.463705428,E,4,17,0.7,3.285,M,36.209,M,0.6,*40
352916.800011,$GPGGA,980138.80,3540.054987549,N,13947.463705364,E,4,17,0.7,3.289,M,36.209,M,0.8,*40
352917.000011,$GPGGA,980139.00,3540.054987109,N,13947.463705318,E,4,17,0.7,3.289,M,36.209,M,1.0,*40
352917.200011,$GPGGA,980139.20,3540.054988302,N,13947.463705247,E,4,17,0.7,3.291,M,36.209,M,0.2,*40
352917.400011,$GPGGA,980139.40,3540.054988220,N,13947.463704749,E,4,17,0.7,3.293,M,36.209,M,0.4,*40
352917.600011,$GPGGA,980139.60,3540.054988203,N,13947.463704877,E,4,17,0.7,3.292,M,36.209,M,0.6,*40
352917.800011,$GPGGA,980139.80,3540.054987748,N,13947.463704402,E,4,17,0.7,3.294,M,36.209,M,0.8,*40
352918.000011,$GPGGA,980140.00,3540.054988176,N,13947.463704385,E,4,17,0.7,3.296,M,36.209,M,1.0,*40
352918.200011,$GPGGA,980140.20,3540.054990169,N,13947.463705208,E,4,17,0.7,3.290,M,36.209,M,0.2,*40
352918.400011,$GPGGA,980140.40,3540.054989205,N,13947.463704691,E,4,17,0.7,3.291,M,36.209,M,0.4,*40
352918.600011,$GPGGA,980140.60,3540.054988734,N,13947.463704206,E,4,17,0.7,3.292,M,36.209,M,0.6,*40
352918.800011,$GPGGA,980140.80,3540.054989218,N,13947.463704522,E,4,17,0.7,3.293,M,36.209,M,0.8,*40
352919.000011,$GPGGA,980141.00,3540.054988688,N,13947.463704126,E,4,17,0.7,3.294,M,36.209,M,1.0,*40
352919.200011,$GPGGA,980141.20,3540.054988405,N,13947.463704173,E,4,17,0.7,3.288,M,36.209,M,0.2,*40
352919.400011,$GPGGA,980141.40,3540.054988222,N,13947.463704480,E,4,17,0.7,3.290,M,36.209,M,0.4,*40
352919.600011,$GPGGA,980141.60,3540.054988863,N,13947.463704282,E,4,17,0.7,3.292,M,36.209,M,0.6,*40
352919.800011,$GPGGA,980141.80,3540.054988751,N,13947.463704231,E,4,17,0.7,3.291,M,36.209,M,0.8,*40
352920.000011,$GPGGA,980142.00,3540.054988361,N,13947.463703658,E,4,17,0.7,3.293,M,36.209,M,1.0,*40
352920.200011,$GPGGA,980142.20,3540.054988773,N,13947.463704837,E,4,17,0.7,3.287,M,36.209,M,0.2,*40
352920.400011,$GPGGA,980142.40,3540.054988491,N,13947.463705218,E,4,17,0.7,3.286,M,36.209,M,0.4,*40
352920.600010,$GPGGA,980142.60,3540.054989714,N,13947.463704763,E,4,17,0.7,3.289,M,36.209,M,0.6,*40
352920.800010,$GPGGA,980142.80,3540.054988634,N,13947.463704213,E,4,17,0.7,3.291,M,36.209,M,0.8,*40
352921.000010,$GPGGA,980143.00,3540.054989166,N,13947.463704694,E,4,17,0.7,3.291,M,36.209,M,1.0,*40
352921.200010,$GPGGA,980143.20,3540.054988558,N,13947.463704483,E,4,17,0.7,3.290,M,36.209,M,0.2,*40
352921.400010,$GPGGA,980143.40,3540.054989013,N,13947.463703581,E,4,17,0.7,3.289,M,36.209,M,0.4,*40
352921.600010,$GPGGA,980143.60,3540.054988644,N,13947.463703765,E,4,17,0.7,3.290,M,36.209,M,0.6,*40
352921.800010,$GPGGA,980143.80,3540.054988879,N,13947.463703453,E,4,17,0.7,3.291,M,36.209,M,0.8,*40
352922.000010,$GPGGA,980144.00,3540.054988963,N,13947.463703018,E,4,17,0.7,3.293,M,36.209,M,1.0,*40
352922.200010,$GPGGA,980144.20,3540.054988266,N,13947.463703815,E,4,17,0.7,3.289,M,36.209,M,0.2,*40
352922.400010,$GPGGA,980144.40,3540.054988632,N,13947.463704195,E,4,17,0.7,3.290,M,36.209,M,0.4,*40
352922.600010,$GPGGA,980144.60,3540.054988587,N,13947.463704043,E,4,17,0.7,3.292,M,36.209,M,0.6,*40
352922.800010,$GPGGA,980144.80,3540.054987900,N,13947.463703732,E,4,17,0.7,3.294,M,36.209,M,0.8,*40
352923.000010,$GPGGA,980145.00,3540.054988476,N,13947.463704545,E,4,17,0.7,3.293,M,36.209,M,1.0,*40
352923.200010,$GPGGA,980145.20,3540.054988798,N,13947.463705381,E,4,17,0.7,3.290,M,36.209,M,0.2,*40
352923.400010,$GPGGA,980145.40,3540.054989355,N,13947.463705031,E,4,17,0.7,3.288,M,36.209,M,0.4,*40
352923.600010,$GPGGA,980145.60,3540.054988567,N,13947.463704319,E,4,17,0.7,3.288,M,36.209,M,0.6,*40
352923.800010,$GPGGA,980145.80,3540.054988747,N,13947.463703970,E,4,17,0.7,3.290,M,36.209,M,0.8,*40
352924.000010,$GPGGA,980146.00,3540.054988668,N,13947.463703607,E,4,17,0.7,3.289,M,36.209,M,1.0,*40
352924.200010,$GPGGA,980146.20,3540.054988457,N,13947.463706213,E,4,17,0.7,3.284,M,36.209,M,0.2,*40
352924.400010,$GPGGA,980146.40,3540.054988678,N,13947.463705773,E,4,17,0.7,3.287,M,36.209,M,0.4,*40
352924.600010,$GPGGA,980146.60,3540.054988364,N,13947.463705321,E,4,17,0.7,3.287,M,36.209,M,0.6,*40
352924.800009,$GPGGA,980146.80,3540.054988248,N,13947.463705340,E,4,17,0.7,3.288,M,36.209,M,0.8,*40
352925.000009,$GPGGA,980147.00,3540.054988132,N,13947.463704990,E,4,17,0.7,3.291,M,36.209,M,1.0,*40
352925.200009,$GPGGA,980147.20,3540.054988174,N,13947.463706020,E,4,17,0.7,3.290,M,36.209,M,0.2,*40
352925.400009,$GPGGA,980147.40,3540.054988047,N,13947.463705822,E,4,17,0.7,3.290,M,36.209,M,0.4,*40
352925.600009,$GPGGA,980147.60,3540.054987775,N,13947.463706269,E,4,17,0.7,3.291,M,36.209,M,0.6,*40
352925.800009,$GPGGA,980147.80,3540.054987808,N,13947.463705629,E,4,17,0.7,3.293,M,36.209,M,0.8,*40
352926.000009,$GPGGA,980148.00,3540.054988556,N,13947.463704905,E,4,17,0.7,3.295,M,36.209,M,1.0,*40
352926.200009,$GPGGA,980148.20,3540.054988522,N,13947.463705785,E,4,17,0.7,3.287,M,36.209,M,0.2,*40
352926.400009,$GPGGA,980148.40,3540.054987962,N,13947.463705156,E,4,17,0.7,3.288,M,36.209,M,0.4,*40
352926.600009,$GPGGA,980148.60,3540.054987530,N,13947.463704639,E,4,17,0.7,3.288,M,36.209,M,0.6,*40
352926.800009,$GPGGA,980148.80,3540.054987450,N,13947.463704144,E,4,17,0.7,3.289,M,36.209,M,0.8,*40
352927.000009,$GPGGA,980149.00,3540.054987375,N,13947.463704024,E,4,17,0.7,3.291,M,36.209,M,1.0,*40
352927.200009,$GPGGA,980149.20,3540.054988192,N,13947.463704600,E,4,17,0.7,3.289,M,36.209,M,0.2,*40
352927.400009,$GPGGA,980149.40,3540.054988293,N,13947.463704289,E,4,17,0.7,3.288,M,36.209,M,0.4,*40
352927.600009,$GPGGA,980149.60,3540.054987784,N,13947.463703937,E,4,17,0.7,3.288,M,36.209,M,0.6,*40
352927.800009,$GPGGA,980149.80,3540.054988051,N,13947.463703665,E,4,17,0.7,3.289,M,36.209,M,0.8,*40
352928.000009,$GPGGA,980150.00,3540.054987403,N,13947.463702950,E,4,17,0.7,3.289,M,36.209,M,1.0,*40
352928.200009,$GPGGA,980150.20,3540.054988399,N,13947.463705751,E,4,17,0.7,3.288,M,36.209,M,0.2,*40
352928.400009,$GPGGA,980150.40,3540.054987831,N,13947.463704681,E,4,17,0.7,3.290,M,36.209,M,0.4,*40
352928.600009,$GPGGA,980150.60,3540.054987931,N,13947.463704678,E,4,17,0.7,3.290,M,36.209,M,0.6,*40
352928.800008,$GPGGA,980150.80,3540.054987959,N,13947.463704550,E,4,17,0.7,3.288,M,36.209,M,0.8,*40
352929.000008,$GPGGA,980151.00,3540.054987526,N,13947.463704065,E,4,17,0.7,3.290,M,36.209,M,1.0,*40
352929.200008,$GPGGA,980151.20,3540.054987727,N,13947.463703795,E,4,17,0.7,3.286,M,36.209,M,0.2,*40
352929.400008,$GPGGA,980151.40,3540.054988222,N,13947.463704283,E,4,17,0.7,3.288,M,36.209,M,0.4,*40
352929.600008,$GPGGA,980151.60,3540.054988802,N,13947.463704021,E,4,17,0.7,3.288,M,36.209,M,0.6,*40
352929.800008,$GPGGA,980151.80,3540.054987994,N,13947.463703448,E,4,17,0.7,3.288,M,36.209,M,0.8,*40
352930.000008,$GPGGA,980152.00,3540.054988538,N,13947.463702634,E,4,17,0.7,3.287,M,36.209,M,1.0,*40
352930.200008,$GPGGA,980152.20,3540.054988584,N,13947.463705011,E,4,17,0.7,3.287,M,36.209,M,0.2,*40
352930.400008,$GPGGA,980152.40,3540.054988145,N,13947.463704707,E,4,17,0.7,3.286,M,36.209,M,0.4,*40
352930.600008,$GPGGA,980152.60,3540.054988654,N,13947.463704963,E,4,17,0.7,3.288,M,36.209,M,0.6,*40
352930.800008,$GPGGA,980152.80,3540.054989256,N,13947.463704889,E,4,17,0.7,3.287,M,36.209,M,0.8,*40
352931.000008,$GPGGA,980153.00,3540.054989416,N,13947.463704009,E,4,17,0.7,3.287,M,36.209,M,1.0,*40
352931.200008,$GPGGA,980153.20,3540.054987084,N,13947.463704664,E,4,17,0.7,3.286,M,36.209,M,0.2,*40
352931.400008,$GPGGA,980153.40,3540.054987655,N,13947.463704331,E,4,17,0.7,3.286,M,36.209,M,0.4,*40
352931.600008,$GPGGA,980153.60,3540.054988075,N,13947.463703094,E,4,17,0.7,3.287,M,36.209,M,0.6,*40
352931.800008,$GPGGA,980153.80,3540.054987923,N,13947.463703605,E,4,17,0.7,3.284,M,36.209,M,0.8,*40
352932.000008,$GPGGA,980154.00,3540.054988458,N,13947.463703241,E,4,17,0.7,3.285,M,36.209,M,1.0,*40
352932.200008,$GPGGA,980154.20,3540.054988138,N,13947.463704668,E,4,17,0.7,3.286,M,36.209,M,0.2,*40
352932.400008,$GPGGA,980154.40,3540.054987702,N,13947.463704348,E,4,17,0.7,3.286,M,36.209,M,0.4,*40
352932.600008,$GPGGA,980154.60,3540.054988435,N,13947.463704456,E,4,17,0.7,3.287,M,36.209,M,0.6,*40
352932.800007,$GPGGA,980154.80,3540.054988138,N,13947.463703740,E,4,17,0.7,3.287,M,36.209,M,0.8,*40
352933.000007,$GPGGA,980155.00,3540.054988107,N,13947.463703203,E,4,17,0.7,3.287,M,36.209,M,1.0,*40
352933.200007,$GPGGA,980155.20,3540.054987999,N,13947.463704444,E,4,17,0.7,3.286,M,36.209,M,0.2,*40
352933.400007,$GPGGA,980155.40,3540.054988289,N,13947.463703889,E,4,17,0.7,3.288,M,36.209,M,0.4,*40
352933.600007,$GPGGA,980155.60,3540.054988433,N,13947.463703399,E,4,17,0.7,3.287,M,36.209,M,0.6,*40
352933.800007,$GPGGA,980155.80,3540.054988479,N,13947.463703320,E,4,17,0.7,3.288,M,36.209,M,0.8,*40
352934.000007,$GPGGA,980156.00,3540.054989088,N,13947.463703142,E,4,17,0.7,3.287,M,36.209,M,1.0,*40
352934.200007,$GPGGA,980156.20,3540.054989133,N,13947.463705475,E,4,17,0.7,3.286,M,36.209,M,0.2,*40
352934.400007,$GPGGA,980156.40,3540.054989233,N,13947.463704646,E,4,17,0.7,3.287,M,36.209,M,0.4,*40
352934.600007,$GPGGA,980156.60,3540.054988897,N,13947.463702880,E,4,17,0.7,3.287,M,36.209,M,0.6,*40
352934.800007,$GPGGA,980156.80,3540.054988930,N,13947.463703787,E,4,17,0.7,3.287,M,36.209,M,0.8,*40
352935.000007,$GPGGA,980157.00,3540.054988977,N,13947.463702453,E,4,17,0.7,3.287,M,36.209,M,1.0,*40
352935.200007,$GPGGA,980157.20,3540.054987519,N,13947.463703400,E,4,17,0.7,3.286,M,36.209,M,0.2,*40
352935.400007,$GPGGA,980157.40,3540.054988062,N,13947.463704052,E,4,17,0.7,3.285,M,36.209,M,0.4,*40
352935.600007,$GPGGA,980157.60,3540.054987964,N,13947.463702771,E,4,17,0.7,3.288,M,36.209,M,0.6,*40
352935.800007,$GPGGA,980157.80,3540.054988021,N,13947.463701713,E,4,17,0.7,3.285,M,36.209,M,0.8,*40
352936.000007,$GPGGA,980158.00,3540.054988469,N,13947.463702217,E,4,17,0.7,3.285,M,36.209,M,1.0,*40
352936.200007,$GPGGA,980158.20,3540.054988887,N,13947.463704927,E,4,17,0.7,3.284,M,36.209,M,0.2,*40
352936.400007,$GPGGA,980158.40,3540.054987792,N,13947.463704096,E,4,17,0.7,3.286,M,36.209,M,0.4,*40
352936.600007,$GPGGA,980158.60,3540.054988360,N,13947.463703763,E,4,17,0.7,3.285,M,36.209,M,0.6,*40
352936.800006,$GPGGA,980158.80,3540.054988453,N,13947.463703119,E,4,17,0.7,3.287,M,36.209,M,0.8,*40
352937.000006,$GPGGA,980159.00,3540.054988895,N,13947.463702632,E,4,17,0.7,3.287,M,36.209,M,1.0,*40
352937.200006,$GPGGA,980159.20,3540.054987891,N,13947.463702908,E,4,17,0.7,3.288,M,36.209,M,0.2,*40
352937.400006,$GPGGA,980159.40,3540.054987642,N,13947.463703048,E,4,17,0.7,3.290,M,36.209,M,0.4,*40
352937.600006,$GPGGA,980159.60,3540.054988052,N,13947.463702400,E,4,17,0.7,3.290,M,36.209,M,0.6,*40
352937.800006,$GPGGA,980159.80,3540.054988694,N,13947.463702228,E,4,17,0.7,3.291,M,36.209,M,0.8,*40
352938.000006,$GPGGA,980200.00,3540.054987919,N,13947.463702115,E,4,17,0.7,3.291,M,36.209,M,1.0,*40
352938.200006,$GPGGA,980200.20,3540.054987413,N,13947.463704255,E,4,17,0.7,3.284,M,36.209,M,0.2,*40
352938.400006,$GPGGA,980200.40,3540.054987988,N,13947.463704235,E,4,17,0.7,3.285,M,36.209,M,0.4,*40
352938.600006,$GPGGA,980200.60,3540.054988376,N,13947.463703954,E,4,17,0.7,3.285,M,36.209,M,0.6,*40
352938.800006,$GPGGA,980200.80,3540.054988348,N,13947.463704329,E,4,17,0.7,3.286,M,36.209,M,0.8,*40
352939.000006,$GPGGA,980201.00,3540.054988028,N,13947.463703322,E,4,17,0.7,3.284,M,36.209,M,1.0,*40
352939.200006,$GPGGA,980201.20,3540.054987602,N,13947.463703820,E,4,17,0.7,3.285,M,36.209,M,0.2,*40
352939.400006,$GPGGA,980201.40,3540.054988074,N,13947.463704147,E,4,17,0.7,3.286,M,36.209,M,0.4,*40
352939.600006,$GPGGA,980201.60,3540.054988222,N,13947.463702907,E,4,17,0.7,3.285,M,36.209,M,0.6,*40
352939.800006,$GPGGA,980201.80,3540.054987997,N,13947.463702919,E,4,17,0.7,3.285,M,36.209,M,0.8,*40
352940.000006,$GPGGA,980202.00,3540.054988307,N,13947.463702971,E,4,17,0.7,3.285,M,36.209,M,1.0,*40
352940.200006,$GPGGA,980202.20,3540.054987449,N,13947.463704458,E,4,17,0.7,3.286,M,36.209,M,0.2,*40
352940.400006,$GPGGA,980202.40,3540.054987898,N,13947.463703996,E,4,17,0.7,3.288,M,36.209,M,0.4,*40
352940.600006,$GPGGA,980202.60,3540.054988181,N,13947.463703599,E,4,17,0.7,3.287,M,36.209,M,0.6,*40
352940.800005,$GPGGA,980202.80,3540.054987865,N,13947.463703701,E,4,17,0.7,3.286,M,36.209,M,0.8,*40
352941.000005,$GPGGA,980203.00,3540.054988689,N,13947.463703200,E,4,17,0.7,3.289,M,36.209,M,1.0,*40
352941.200005,$GPGGA,980203.20,3540.054987404,N,13947.463704301,E,4,17,0.7,3.284,M,36.209,M,0.2,*40
352941.400005,$GPGGA,980203.40,3540.054987130,N,13947.463704022,E,4,17,0.7,3.285,M,36.209,M,0.4,*40
352941.600005,$GPGGA,980203.60,3540.054987511,N,13947.463704034,E,4,17,0.7,3.284,M,36.209,M,0.6,*40
352941.800005,$GPGGA,980203.80,3540.054987377,N,13947.463702908,E,4,17,0.7,3.287,M,36.209,M,0.8,*40
352942.000005,$GPGGA,980204.00,3540.054987666,N,13947.463703462,E,4,17,0.7,3.288,M,36.209,M,1.0,*40
352942.200005,$GPGGA,980204.20,3540.054987545,N,13947.463704318,E,4,17,0.7,3.287,M,36.209,M,0.2,*40
352942.400005,$GPGGA,980204.40,3540.054987609,N,13947.463703721,E,4,17,0.7,3.288,M,36.209,M,0.4,*40
352942.600005,$GPGGA,980204.60,3540.054987540,N,13947.463703724,E,4,17,0.7,3.287,M,36.209,M,0.6,*40
352942.800005,$GPGGA,980204.80,3540.054987832,N,13947.463703327,E,4,17,0.7,3.288,M,36.209,M,0.8,*40
352943.000005,$GPGGA,980205.00,3540.054987556,N,13947.463702710,E,4,17,0.7,3.286,M,36.209,M,1.0,*40
352943.200005,$GPGGA,980205.20,3540.054987552,N,13947.463702645,E,4,17,0.7,3.286,M,36.209,M,0.2,*40
352943.400005,$GPGGA,980205.40,3540.054987228,N,13947.463702341,E,4,17,0.7,3.287,M,36.209,M,0.4,*40
352943.600005,$GPGGA,980205.60,3540.054987764,N,13947.463702602,E,4,17,0.7,3.287,M,36.209,M,0.6,*40
352943.800005,$GPGGA,980205.80,3540.054987781,N,13947.463702179,E,4,17,0.7,3.287,M,36.209,M,0.8,*40
352944.000005,$GPGGA,980206.00,3540.054988157,N,13947.463701887,E,4,17,0.7,3.287,M,36.209,M,1.0,*40
352944.200005,$GPGGA,980206.20,3540.054988744,N,13947.463703685,E,4,17,0.7,3.286,M,36.209,M,0.2,*40
352944.400005,$GPGGA,980206.40,3540.054988136,N,13947.463703268,E,4,17,0.7,3.286,M,36.209,M,0.4,*40
352944.600005,$GPGGA,980206.60,3540.054988329,N,13947.463703261,E,4,17,0.7,3.286,M,36.209,M,0.6,*40
352944.800004,$GPGGA,980206.80,3540.054987622,N,13947.463702748,E,4,17,0.7,3.288,M,36.209,M,0.8,*40
352945.000004,$GPGGA,980207.00,3540.054987932,N,13947.463702504,E,4,17,0.7,3.286,M,36.209,M,1.0,*40
352945.200004,$GPGGA,980207.20,3540.054988204,N,13947.463703106,E,4,17,0.7,3.284,M,36.209,M,0.2,*40
352945.400004,$GPGGA,980207.40,3540.054988619,N,13947.463702807,E,4,17,0.7,3.286,M,36.209,M,0.4,*40
352945.600004,$GPGGA,980207.60,3540.054987878,N,13947.463701482,E,4,17,0.7,3.286,M,36.209,M,0.6,*40
352945.800004,$GPGGA,980207.80,3540.054988139,N,13947.463701572,E,4,17,0.7,3.285,M,36.209,M,0.8,*40
352946.000004,$GPGGA,980208.00,3540.054988452,N,13947.463700703,E,4,17,0.7,3.288,M,36.209,M,1.0,*40
352946.200004,$GPGGA,980208.20,3540.054988402,N,13947.463704202,E,4,17,0.7,3.287,M,36.209,M,0.2,*40
352946.400004,$GPGGA,980208.40,3540.054988326,N,13947.463703742,E,4,17,0.7,3.287,M,36.209,M,0.4,*40
352946.600004,$GPGGA,980208.60,3540.054988576,N,13947.463703479,E,4,17,0.7,3.288,M,36.209,M,0.6,*40
352946.800004,$GPGGA,980208.80,3540.054988865,N,13947.463702990,E,4,17,0.7,3.289,M,36.209,M,0.8,*40
352947.000004,$GPGGA,980209.00,3540.054989168,N,13947.463703285,E,4,17,0.7,3.290,M,36.209,M,1.0,*40
352947.200004,$GPGGA,980209.20,3540.054987730,N,13947.463703581,E,4,17,0.7,3.286,M,36.209,M,0.2,*40
352947.400004,$GPGGA,980209.40,3540.054988131,N,13947.463703718,E,4,17,0.7,3.288,M,36.209,M,0.4,*40
352947.600004,$GPGGA,980209.60,3540.054987860,N,13947.463703047,E,4,17,0.7,3.287,M,36.209,M,0.6,*40
352947.800004,$GPGGA,980209.80,3540.054988679,N,13947.463702456,E,4,17,0.7,3.291,M,36.209,M,0.8,*40
352948.000004,$GPGGA,980210.00,3540.054988217,N,13947.463702637,E,4,17,0.7,3.289,M,36.209,M,1.0,*40
352948.200004,$GPGGA,980210.20,3540.054988633,N,13947.463703094,E,4,17,0.7,3.286,M,36.209,M,0.2,*40
352948.400004,$GPGGA,980210.40,3540.054987343,N,13947.463702444,E,4,17,0.7,3.287,M,36.209,M,0.4,*40
352948.600004,$GPGGA,980210.60,3540.054987903,N,13947.463702553,E,4,17,0.7,3.289,M,36.209,M,0.6,*40
352948.800004,$GPGGA,980210.80,3540.054987670,N,13947.463701991,E,4,17,0.7,3.288,M,36.209,M,0.8,*40
352949.000003,$GPGGA,980211.00,3540.054987940,N,13947.463702458,E,4,17,0.7,3.289,M,36.209,M,1.0,*40
352949.200003,$GPGGA,980211.20,3540.054987589,N,13947.463702026,E,4,17,0.7,3.287,M,36.209,M,0.2,*40
352949.400003,$GPGGA,980211.40,3540.054987756,N,13947.463702616,E,4,17,0.7,3.287,M,36.209,M,0.4,*40
352949.600003,$GPGGA,980211.60,3540.054988133,N,13947.463701764,E,4,17,0.7,3.287,M,36.209,M,0.6,*40
352949.800003,$GPGGA,980211.80,3540.054988022,N,13947.463702065,E,4,17,0.7,3.289,M,36.209,M,0.8,*40
352950.000003,$GPGGA,980212.00,3540.054988295,N,13947.463701687,E,4,17,0.7,3.289,M,36.209,M,1.0,*40
352950.200003,$GPGGA,980212.20,3540.054987757,N,13947.463702363,E,4,17,0.7,3.289,M,36.209,M,0.2,*40
352950.400003,$GPGGA,980212.40,3540.054987911,N,13947.463702166,E,4,17,0.7,3.289,M,36.209,M,0.4,*40
352950.600003,$GPGGA,980212.60,3540.054988270,N,13947.463702057,E,4,17,0.7,3.287,M,36.209,M,0.6,*40
352950.800003,$GPGGA,980212.80,3540.054988350,N,13947.463701468,E,4,17,0.7,3.291,M,36.209,M,0.8,*40
352951.000003,$GPGGA,980213.00,3540.054988208,N,13947.463701031,E,4,17,0.7,3.290,M,36.209,M,1.0,*40
352951.200003,$GPGGA,980213.20,3540.054988993,N,13947.463702755,E,4,17,0.7,3.286,M,36.209,M,0.2,*40
352951.400003,$GPGGA,980213.40,3540.054988589,N,13947.463702946,E,4,17,0.7,3.286,M,36.209,M,0.4,*40
352951.600003,$GPGGA,980213.60,3540.054988737,N,13947.463702478,E,4,17,0.7,3.287,M,36.209,M,0.6,*40
352951.800003,$GPGGA,980213.80,3540.054989148,N,13947.463702358,E,4,17,0.7,3.290,M,36.209,M,0.8,*40
352952.000003,$GPGGA,980214.00,3540.054988277,N,13947.463701963,E,4,17,0.7,3.289,M,36.209,M,1.0,*40
352952.200003,$GPGGA,980214.20,3540.054988803,N,13947.463704314,E,4,17,0.7,3.285,M,36.209,M,0.2,*40
352952.400003,$GPGGA,980214.40,3540.054988453,N,13947.463704118,E,4,17,0.7,3.286,M,36.209,M,0.4,*40
352952.600003,$GPGGA,980214.60,3540.054988449,N,13947.463703927,E,4,17,0.7,3.286,M,36.209,M,0.6,*40
352952.800003,$GPGGA,980214.80,3540.054988359,N,13947.463703644,E,4,17,0.7,3.288,M,36.209,M,0.8,*40
352953.000002,$GPGGA,980215.00,3540.054988122,N,13947.463702886,E,4,17,0.7,3.289,M,36.209,M,1.0,*40
352953.200002,$GPGGA,980215.20,3540.054987797,N,13947.463703668,E,4,17,0.7,3.287,M,36.209,M,0.2,*40
352953.400002,$GPGGA,980215.40,3540.054987841,N,13947.463702673,E,4,17,0.7,3.286,M,36.209,M,0.4,*40
352953.600002,$GPGGA,980215.60,3540.054987276,N,13947.463703440,E,4,17,0.7,3.287,M,36.209,M,0.6,*40
352953.800002,$GPGGA,980215.80,3540.054987341,N,13947.463702486,E,4,17,0.7,3.288,M,36.209,M,0.8,*40
352954.000002,$GPGGA,980216.00,3540.054986645,N,13947.463702021,E,4,17,0.7,3.290,M,36.209,M,1.0,*40
352954.200002,$GPGGA,980216.20,3540.054988258,N,13947.463703492,E,4,17,0.7,3.287,M,36.209,M,0.2,*40
352954.400002,$GPGGA,980216.40,3540.054988968,N,13947.463703335,E,4,17,0.7,3.289,M,36.209,M,0.4,*40
352954.600002,$GPGGA,980216.60,3540.054988629,N,13947.463703969,E,4,17,0.7,3.288,M,36.209,M,0.6,*40
352954.800002,$GPGGA,980216.80,3540.054988538,N,13947.463704181,E,4,17,0.7,3.288,M,36.209,M,0.8,*40
352955.000002,$GPGGA,980217.00,3540.054988362,N,13947.463703734,E,4,17,0.7,3.289,M,36.209,M,1.0,*40
352955.200002,$GPGGA,980217.20,3540.054988161,N,13947.463704221,E,4,17,0.7,3.288,M,36.209,M,0.2,*40
352955.400002,$GPGGA,980217.40,3540.054988245,N,13947.463704005,E,4,17,0.7,3.287,M,36.209,M,0.4,*40
352955.600002,$GPGGA,980217.60,3540.054988361,N,13947.463703649,E,4,17,0.7,3.289,M,36.209,M,0.6,*40
352955.800002,$GPGGA,980217.80,3540.054987848,N,13947.463703492,E,4,17,0.7,3.287,M,36.209,M,0.8,*40
352956.000002,$GPGGA,980218.00,3540.054987998,N,13947.463703238,E,4,17,0.7,3.290,M,36.209,M,1.0,*40
352956.200002,$GPGGA,980218.20,3540.054988637,N,13947.463704725,E,4,17,0.7,3.285,M,36.209,M,0.2,*40
352956.400002,$GPGGA,980218.40,3540.054989132,N,13947.463704655,E,4,17,0.7,3.287,M,36.209,M,0.4,*40
352956.600002,$GPGGA,980218.60,3540.054989164,N,13947.463704035,E,4,17,0.7,3.289,M,36.209,M,0.6,*40
352956.800002,$GPGGA,980218.80,3540.054988717,N,13947.463703939,E,4,17,0.7,3.289,M,36.209,M,0.8,*40
352957.000001,$GPGGA,980219.00,3540.054989051,N,13947.463702897,E,4,17,0.7,3.288,M,36.209,M,1.0,*40
352957.200001,$GPGGA,980219.20,3540.054988918,N,13947.463704354,E,4,17,0.7,3.288,M,36.209,M,0.2,*40
352957.400001,$GPGGA,980219.40,3540.054989142,N,13947.463704169,E,4,17,0.7,3.287,M,36.209,M,0.4,*40
352957.600001,$GPGGA,980219.60,3540.054988459,N,13947.463703990,E,4,17,0.7,3.289,M,36.209,M,0.6,*40
352957.800001,$GPGGA,980219.80,3540.054988740,N,13947.463704041,E,4,17,0.7,3.290,M,36.209,M,0.8,*40
352958.000001,$GPGGA,980220.00,3540.054987754,N,13947.463703125,E,4,17,0.7,3.290,M,36.209,M,1.0,*40
352958.200001,$GPGGA,980220.20,3540.054989642,N,13947.463704896,E,4,17,0.7,3.289,M,36.209,M,0.2,*40
352958.400001,$GPGGA,980220.40,3540.054989451,N,13947.463704294,E,4,17,0.7,3.288,M,36.209,M,0.4,*40
352958.600001,$GPGGA,980220.60,3540.054988975,N,13947.463704707,E,4,17,0.7,3.289,M,36.209,M,0.6,*40
352958.800001,$GPGGA,980220.80,3540.054988360,N,13947.463704469,E,4,17,0.7,3.290,M,36.209,M,0.8,*40
352959.000001,$GPGGA,980221.00,3540.054989093,N,13947.463704689,E,4,17,0.7,3.290,M,36.209,M,1.0,*40
352959.200001,$GPGGA,980221.20,3540.054988172,N,13947.463704293,E,4,17,0.7,3.285,M,36.209,M,0.2,*40
352959.400001,$GPGGA,980221.40,3540.054988803,N,13947.463704437,E,4,17,0.7,3.285,M,36.209,M,0.4,*40
352959.600001,$GPGGA,980221.60,3540.054988162,N,13947.463703416,E,4,17,0.7,3.287,M,36.209,M,0.6,*40
352959.800001,$GPGGA,980221.80,3540.054987414,N,13947.463703752,E,4,17,0.7,3.286,M,36.209,M,0.8,*40
352960.000001,$GPGGA,980222.00,3540.054987740,N,13947.463702840,E,4,17,0.7,3.288,M,36.209,M,1.0,*40
352960.200001,$GPGGA,980222.20,3540.054989177,N,13947.463704112,E,4,17,0.7,3.287,M,36.209,M,0.2,*40
352960.400001,$GPGGA,980222.40,3540.054989611,N,13947.463703756,E,4,17,0.7,3.287,M,36.209,M,0.4,*40
352960.600001,$GPGGA,980222.60,3540.054989022,N,13947.463704625,E,4,17,0.7,3.286,M,36.209,M,0.6,*40
352960.800001,$GPGGA,980222.80,3540.054989003,N,13947.463703752,E,4,17,0.7,3.290,M,36.209,M,0.8,*40
352961.000000,$GPGGA,980223.00,3540.054988539,N,13947.463703336,E,4,17,0.7,3.288,M,36.209,M,1.0,*40
352961.200000,$GPGGA,980223.20,3540.054989805,N,13947.463704577,E,4,17,0.7,3.282,M,36.209,M,0.2,*40
352961.400000,$GPGGA,980223.40,3540.054989388,N,13947.463705071,E,4,17,0.7,3.284,M,36.209,M,0.4,*40
352961.600000,$GPGGA,980223.60,3540.054989014,N,13947.463702888,E,4,17,0.7,3.285,M,36.209,M,0.6,*40
352961.800000,$GPGGA,980223.80,3540.054989703,N,13947.463702669,E,4,17,0.7,3.287,M,36.209,M,0.8,*40
352962.000000,$GPGGA,980224.00,3540.054988402,N,13947.463702456,E,4,17,0.7,3.286,M,36.209,M,1.0,*40
352962.200000,$GPGGA,980224.20,3540.054988524,N,13947.463705057,E,4,17,0.7,3.283,M,36.209,M,0.2,*40
352962.400000,$GPGGA,980224.40,3540.054988778,N,13947.463704797,E,4,17,0.7,3.284,M,36.209,M,0.4,*40
352962.600000,$GPGGA,980224.60,3540.054988246,N,13947.463704611,E,4,17,0.7,3.286,M,36.209,M,0.6,*40
352962.800000,$GPGGA,980224.80,3540.054988285,N,13947.463704480,E,4,17,0.7,3.285,M,36.209,M,0.8,*40
352963.000000,$GPGGA,980225.00,3540.054988025,N,13947.463703362,E,4,17,0.7,3.288,M,36.209,M,1.0,*40
352963.200000,$GPGGA,980225.20,3540.054988084,N,13947.463705447,E,4,17,0.7,3.283,M,36.209,M,0.2,*40
352963.400000,$GPGGA,980225.40,3540.054987941,N,13947.463705274,E,4,17,0.7,3.284,M,36.209,M,0.4,*40
352963.600000,$GPGGA,980225.60,3540.054988036,N,13947.463704886,E,4,17,0.7,3.283,M,36.209,M,0.6,*40
352963.800000,$GPGGA,980225.80,3540.054987756,N,13947.463703542,E,4,17,0.7,3.283,M,36.209,M,0.8,*40
352964.000000,$GPGGA,980226.00,3540.054988293,N,13947.463703978,E,4,17,0.7,3.286,M,36.209,M,1.0,*40
352964.200000,$GPGGA,980226.20,3540.054987927,N,13947.463704578,E,4,17,0.7,3.286,M,36.209,M,0.2,*40
352964.400000,$GPGGA,980226.40,3540.054988250,N,13947.463704972,E,4,17,0.7,3.288,M,36.209,M,0.4,*40
352964.600000,$GPGGA,980226.60,3540.054988470,N,13947.463704792,E,4,17,0.7,3.288,M,36.209,M,0.6,*40
352964.800000,$GPGGA,980226.80,3540.054987969,N,13947.463703993,E,4,17,0.7,3.289,M,36.209,M,0.8,*40
352964.999999,$GPGGA,980227.00,3540.054988055,N,13947.463703918,E,4,17,0.7,3.290,M,36.209,M,1.0,*40
352965.199999,$GPGGA,980227.20,3540.054988719,N,13947.463704544,E,4,17,0.7,3.285,M,36.209,M,0.2,*40
352965.399999,$GPGGA,980227.40,3540.054988124,N,13947.463704136,E,4,17,0.7,3.286,M,36.209,M,0.4,*40
352965.599999,$GPGGA,980227.60,3540.054988300,N,13947.463704354,E,4,17,0.7,3.285,M,36.209,M,0.6,*40
352965.799999,$GPGGA,980227.80,3540.054988337,N,13947.463703569,E,4,17,0.7,3.288,M,36.209,M,0.8,*40
352965.999999,$GPGGA,980228.00,3540.054987888,N,13947.463702693,E,4,17,0.7,3.289,M,36.209,M,1.0,*40
352966.199999,$GPGGA,980228.20,3540.054988832,N,13947.463704712,E,4,17,0.7,3.284,M,36.209,M,0.2,*40
352966.399999,$GPGGA,980228.40,3540.054989202,N,13947.463704429,E,4,17,0.7,3.285,M,36.209,M,0.4,*40
352966.599999,$GPGGA,980228.60,3540.054988931,N,13947.463704325,E,4,17,0.7,3.286,M,36.209,M,0.6,*40
352966.799999,$GPGGA,980228.80,3540.054988896,N,13947.463703791,E,4,17,0.7,3.287,M,36.209,M,0.8,*40
352966.999999,$GPGGA,980229.00,3540.054988550,N,13947.463703494,E,4,17,0.7,3.289,M,36.209,M,1.0,*40
352967.199999,$GPGGA,980229.20,3540.054988348,N,13947.463704414,E,4,17,0.7,3.283,M,36.209,M,0.2,*40
352967.399999,$GPGGA,980229.40,3540.054988506,N,13947.463703890,E,4,17,0.7,3.287,M,36.209,M,0.4,*40
352967.599999,$GPGGA,980229.60,3540.054988134,N,13947.463703775,E,4,17,0.7,3.285,M,36.209,M,0.6,*40
352967.799999,$GPGGA,980229.80,3540.054988576,N,13947.463703871,E,4,17,0.7,3.288,M,36.209,M,0.8,*40
352967.999999,$GPGGA,980230.00,3540.054988396,N,13947.463703088,E,4,17,0.7,3.288,M,36.209,M,1.0,*40
352968.199999,$GPGGA,980230.20,3540.054988315,N,13947.463704280,E,4,17,0.7,3.286,M,36.209,M,0.2,*40
352968.399999,$GPGGA,980230.40,3540.054988309,N,13947.463704503,E,4,17,0.7,3.285,M,36.209,M,0.4,*40
352968.599999,$GPGGA,980230.60,3540.054988455,N,13947.463704480,E,4,17,0.7,3.287,M,36.209,M,0.6,*40
352968.799999,$GPGGA,980230.80,3540.054987867,N,13947.463703851,E,4,17,0.7,3.288,M,36.209,M,0.8,*40
352968.999998,$GPGGA,980231.00,3540.054988590,N,13947.463703819,E,4,17,0.7,3.289,M,36.209,M,1.0,*40
352969.199998,$GPGGA,980231.20,3540.054987791,N,13947.463704276,E,4,17,0.7,3.285,M,36.209,M,0.2,*40
352969.399998,$GPGGA,980231.40,3540.054988051,N,13947.463704611,E,4,17,0.7,3.287,M,36.209,M,0.4,*40
352969.599998,$GPGGA,980231.60,3540.054988131,N,13947.463703546,E,4,17,0.7,3.288,M,36.209,M,0.6,*40
352969.799998,$GPGGA,980231.80,3540.054988206,N,13947.463704114,E,4,17,0.7,3.290,M,36.209,M,0.8,*40
352969.999998,$GPGGA,980232.00,3540.054987479,N,13947.463703122,E,4,17,0.7,3.288,M,36.209,M,1.0,*40
352970.199998,$GPGGA,980232.20,3540.054988532,N,13947.463704009,E,4,17,0.7,3.283,M,36.209,M,0.2,*40
352970.399998,$GPGGA,980232.40,3540.054989265,N,13947.463704197,E,4,17,0.7,3.282,M,36.209,M,0.4,*40
352970.599998,$GPGGA,980232.60,3540.054988507,N,13947.463702880,E,4,17,0.7,3.283,M,36.209,M,0.6,*40
352970.799998,$GPGGA,980232.80,3540.054988408,N,13947.463703059,E,4,17,0.7,3.284,M,36.209,M,0.8,*40
352970.999998,$GPGGA,980233.00,3540.054988180,N,13947.463703217,E,4,17,0.7,3.287,M,36.209,M,1.0,*40
352971.199998,$GPGGA,980233.20,3540.054988541,N,13947.463705278,E,4,17,0.7,3.284,M,36.209,M,0.2,*40
352971.399998,$GPGGA,980233.40,3540.054988507,N,13947.463704670,E,4,17,0.7,3.288,M,36.209,M,0.4,*40
352971.599998,$GPGGA,980233.60,3540.054988727,N,13947.463704677,E,4,17,0.7,3.286,M,36.209,M,0.6,*40
352971.799998,$GPGGA,980233.80,3540.054988440,N,13947.463703780,E,4,17,0.7,3.289,M,36.209,M,0.8,*40
352971.999998,$GPGGA,980234.00,3540.054987954,N,13947.463703533,E,4,17,0.7,3.290,M,36.209,M,1.0,*40
352972.199998,$GPGGA,980234.20,3540.054988208,N,13947.463705656,E,4,17,0.7,3.285,M,36.209,M,0.2,*40
352972.399998,$GPGGA,980234.40,3540.054988066,N,13947.463704602,E,4,17,0.7,3.286,M,36.209,M,0.4,*40
352972.599998,$GPGGA,980234.60,3540.054988051,N,13947.463704501,E,4,17,0.7,3.285,M,36.209,M,0.6,*40
352972.799998,$GPGGA,980234.80,3540.054987315,N,13947.463703680,E,4,17,0.7,3.287,M,36.209,M,0.8,*40
352972.999997,$GPGGA,980235.00,3540.054987415,N,13947.463702778,E,4,17,0.7,3.286,M,36.209,M,1.0,*40
352973.199997,$GPGGA,980235.20,3540.054989210,N,13947.463705372,E,4,17,0.7,3.287,M,36.209,M,0.2,*40
352973.399997,$GPGGA,980235.40,3540.054988532,N,13947.463705415,E,4,17,0.7,3.285,M,36.209,M,0.4,*40
352973.599997,$GPGGA,980235.60,3540.054988371,N,13947.463704630,E,4,17,0.7,3.287,M,36.209,M,0.6,*40
352973.799997,$GPGGA,980235.80,3540.054988319,N,13947.463704145,E,4,17,0.7,3.286,M,36.209,M,0.8,*40
352973.999997,$GPGGA,980236.00,3540.054988137,N,13947.463704127,E,4,17,0.7,3.289,M,36.209,M,1.0,*40
352974.199997,$GPGGA,980236.20,3540.054988499,N,13947.463704332,E,4,17,0.7,3.286,M,36.209,M,0.2,*40
352974.399997,$GPGGA,980236.40,3540.054988613,N,13947.463704977,E,4,17,0.7,3.286,M,36.209,M,0.4,*40
352974.599997,$GPGGA,980236.60,3540.054988638,N,13947.463704855,E,4,17,0.7,3.286,M,36.209,M,0.6,*40
